[
  {
    "placeId": "1890424195",
    "name": "베트남이랑",
    "category": "베트남음식",
    "lat": 37.4989957,
    "lng": 127.0261395,
    "score": 3.22,
    "foodCount": 1883,
    "secondTag": "현지 맛에 가까워요",
    "secondCount": 584,
    "area": "강남역"
  },
  {
    "placeId": "1099524893",
    "name": "또보겠지떡볶이집 강남헬로몽키점",
    "category": "분식",
    "lat": 37.5030822,
    "lng": 127.0272802,
    "score": 3.1,
    "foodCount": 2210,
    "secondTag": "친절해요",
    "secondCount": 712,
    "area": "강남역"
  },
  {
    "placeId": "31068331",
    "name": "우동명가 기리야마본진",
    "category": "우동,소바",
    "lat": 37.497127,
    "lng": 127.0304175,
    "score": 2.79,
    "foodCount": 1330,
    "secondTag": "특별한 메뉴가 있어요",
    "secondCount": 476,
    "area": "강남역"
  },
  {
    "placeId": "254171411",
    "name": "고베규카츠 서울 강남점",
    "category": "돈가스",
    "lat": 37.5028871,
    "lng": 127.0275872,
    "score": 2.51,
    "foodCount": 12168,
    "secondTag": "매장이 넓어요",
    "secondCount": 4840,
    "area": "강남역"
  },
  {
    "placeId": "1044215725",
    "name": "부엉이산장 강남점",
    "category": "요리주점",
    "lat": 37.500496,
    "lng": 127.0282687,
    "score": 2.43,
    "foodCount": 4265,
    "secondTag": "기본 안주가 좋아요",
    "secondCount": 1755,
    "area": "강남역"
  },
  {
    "placeId": "1687684396",
    "name": "트라가 강남역점",
    "category": "스페인음식",
    "lat": 37.4956249,
    "lng": 127.025689,
    "score": 2.35,
    "foodCount": 3651,
    "secondTag": "재료가 신선해요",
    "secondCount": 1554,
    "area": "강남역"
  },
  {
    "placeId": "1274621934",
    "name": "오제제 강남점",
    "category": "일식당",
    "lat": 37.4950692,
    "lng": 127.0298087,
    "score": 2.34,
    "foodCount": 633,
    "secondTag": "인테리어가 멋져요",
    "secondCount": 270,
    "area": "강남역"
  },
  {
    "placeId": "1259912895",
    "name": "봉피양 강남점",
    "category": "한식",
    "lat": 37.4946778,
    "lng": 127.0288004,
    "score": 2.32,
    "foodCount": 547,
    "secondTag": "재료가 신선해요",
    "secondCount": 236,
    "area": "강남역"
  },
  {
    "placeId": "1553521994",
    "name": "꼬끼오 장작구이",
    "category": "한식",
    "lat": 37.4970832,
    "lng": 127.0313145,
    "score": 2.31,
    "foodCount": 1019,
    "secondTag": "매장이 넓어요",
    "secondCount": 442,
    "area": "강남역"
  },
  {
    "placeId": "2075870695",
    "name": "규카츠정 강남점",
    "category": "일식당",
    "lat": 37.5003133,
    "lng": 127.0276518,
    "score": 2.21,
    "foodCount": 279,
    "secondTag": "재료가 신선해요",
    "secondCount": 126,
    "area": "강남역"
  },
  {
    "placeId": "1995535348",
    "name": "군선생 강남점",
    "category": "생선구이",
    "lat": 37.4957149,
    "lng": 127.0256858,
    "score": 2.15,
    "foodCount": 554,
    "secondTag": "재료가 신선해요",
    "secondCount": 258,
    "area": "강남역"
  },
  {
    "placeId": "19896618",
    "name": "갓덴스시 강남점",
    "category": "초밥,롤",
    "lat": 37.4987359,
    "lng": 127.0290626,
    "score": 2.11,
    "foodCount": 1857,
    "secondTag": "재료가 신선해요",
    "secondCount": 881,
    "area": "강남역"
  },
  {
    "placeId": "1581701475",
    "name": "쿄코코 신논현점",
    "category": "일식당",
    "lat": 37.503281,
    "lng": 127.0274037,
    "score": 2.07,
    "foodCount": 10790,
    "secondTag": "인테리어가 멋져요",
    "secondCount": 5219,
    "area": "강남역"
  },
  {
    "placeId": "1094851432",
    "name": "낙원타코 강남역점",
    "category": "멕시코,남미음식",
    "lat": 37.4981634,
    "lng": 127.0253638,
    "score": 2.03,
    "foodCount": 4275,
    "secondTag": "매장이 넓어요",
    "secondCount": 2103,
    "area": "강남역"
  }
]