[
  {
    "placeId": "31085421",
    "name": "춘천산골닭갈비 명일점",
    "category": "닭갈비",
    "lat": 37.551843,
    "lng": 127.143389,
    "score": 6.22,
    "foodCount": 112,
    "secondTag": "친절해요",
    "secondCount": 18,
    "area": "명일"
  },
  {
    "placeId": "32839659",
    "name": "경상도식당",
    "category": "돼지고기구이",
    "lat": 37.5686875,
    "lng": 127.0054617,
    "score": 6.05,
    "foodCount": 339,
    "secondTag": "특별한 메뉴가 있어요",
    "secondCount": 56,
    "area": "을지로"
  },
  {
    "placeId": "13468956",
    "name": "뽕나무쟁이 선릉본점",
    "category": "족발,보쌈",
    "lat": 37.5032108,
    "lng": 127.0520516,
    "score": 5.77,
    "foodCount": 1426,
    "secondTag": "고기 질이 좋아요",
    "secondCount": 247,
    "area": "선릉"
  },
  {
    "placeId": "11802189",
    "name": "교촌치킨 상계보람점",
    "category": "치킨,닭강정",
    "lat": 37.6631433,
    "lng": 127.0661817,
    "score": 5.73,
    "foodCount": 189,
    "secondTag": "친절해요",
    "secondCount": 33,
    "area": "상계"
  },
  {
    "placeId": "19886103",
    "name": "별미칡냉면원조",
    "category": "냉면",
    "lat": 37.5082596,
    "lng": 126.7242213,
    "score": 5.61,
    "foodCount": 1756,
    "secondTag": "양이 많아요",
    "secondCount": 313,
    "area": "인천 부평"
  },
  {
    "placeId": "33471247",
    "name": "동대문엽기떡볶이 김포장기점",
    "category": "분식",
    "lat": 37.6447799,
    "lng": 126.6681679,
    "score": 5.29,
    "foodCount": 365,
    "secondTag": "양이 많아요",
    "secondCount": 69,
    "area": "김포 장기"
  },
  {
    "placeId": "31188803",
    "name": "BHC치킨 명일점",
    "category": "치킨,닭강정",
    "lat": 37.550569,
    "lng": 127.1465548,
    "score": 5.26,
    "foodCount": 305,
    "secondTag": "친절해요",
    "secondCount": 58,
    "area": "명일"
  },
  {
    "placeId": "11802036",
    "name": "교촌치킨 목동2호점",
    "category": "치킨,닭강정",
    "lat": 37.5368283,
    "lng": 126.8835144,
    "score": 5.22,
    "foodCount": 141,
    "secondTag": "친절해요",
    "secondCount": 27,
    "area": "목동"
  },
  {
    "placeId": "33996715",
    "name": "화정족발",
    "category": "족발,보쌈",
    "lat": 37.6322004,
    "lng": 126.8313021,
    "score": 5.22,
    "foodCount": 1107,
    "secondTag": "고기 질이 좋아요",
    "secondCount": 212,
    "area": "고양 화정"
  },
  {
    "placeId": "11678488",
    "name": "오장동흥남집 본점",
    "category": "냉면",
    "lat": 37.5643768,
    "lng": 127.0005287,
    "score": 5.01,
    "foodCount": 2550,
    "secondTag": "친절해요",
    "secondCount": 509,
    "area": "충무로"
  },
  {
    "placeId": "37406955",
    "name": "청실홍실 연수점",
    "category": "국수",
    "lat": 37.4077867,
    "lng": 126.6723106,
    "score": 5.01,
    "foodCount": 1543,
    "secondTag": "친절해요",
    "secondCount": 308,
    "area": "인천 연수"
  },
  {
    "placeId": "11678637",
    "name": "신성각",
    "category": "중식당",
    "lat": 37.544725,
    "lng": 126.9577875,
    "score": 5.0,
    "foodCount": 5,
    "secondTag": "재료가 신선해요",
    "secondCount": 1,
    "area": "효창공원"
  },
  {
    "placeId": "1277158511",
    "name": "개성상황버섯삼계탕 안성직영점",
    "category": "백숙,삼계탕",
    "lat": 36.988874,
    "lng": 127.2696599,
    "score": 4.87,
    "foodCount": 1275,
    "secondTag": "매장이 넓어요",
    "secondCount": 262,
    "area": "안성"
  },
  {
    "placeId": "18191643",
    "name": "동아냉면 이태원점",
    "category": "냉면",
    "lat": 37.5337,
    "lng": 127.0032875,
    "score": 4.7,
    "foodCount": 1321,
    "secondTag": "가성비가 좋아요",
    "secondCount": 281,
    "area": "한남"
  },
  {
    "placeId": "11627659",
    "name": "동아냉면 본점",
    "category": "냉면",
    "lat": 37.5339686,
    "lng": 126.9921963,
    "score": 4.63,
    "foodCount": 791,
    "secondTag": "특별한 메뉴가 있어요",
    "secondCount": 171,
    "area": "이태원"
  },
  {
    "placeId": "20601327",
    "name": "새말해장국",
    "category": "감자탕",
    "lat": 37.1606034,
    "lng": 127.0775087,
    "score": 4.6,
    "foodCount": 1839,
    "secondTag": "주차하기 편해요",
    "secondCount": 400,
    "area": "오산"
  },
  {
    "placeId": "1201582280",
    "name": "조마루감자탕 미아점",
    "category": "감자탕",
    "lat": 37.6169942,
    "lng": 127.0290689,
    "score": 4.49,
    "foodCount": 1086,
    "secondTag": "친절해요",
    "secondCount": 242,
    "area": "미아"
  },
  {
    "placeId": "11681136",
    "name": "나누미떡볶이 성대본점",
    "category": "떡볶이",
    "lat": 37.5837668,
    "lng": 126.9979068,
    "score": 4.48,
    "foodCount": 2373,
    "secondTag": "친절해요",
    "secondCount": 530,
    "area": "대학로"
  },
  {
    "placeId": "32739131",
    "name": "동대문엽기떡볶이 여주터미널점",
    "category": "분식",
    "lat": 37.2898148,
    "lng": 127.636222,
    "score": 4.48,
    "foodCount": 215,
    "secondTag": "양이 많아요",
    "secondCount": 48,
    "area": "여주"
  },
  {
    "placeId": "1800616009",
    "name": "동대문명동닭한마리",
    "category": "닭요리",
    "lat": 37.4146305,
    "lng": 127.2448537,
    "score": 4.43,
    "foodCount": 226,
    "secondTag": "친절해요",
    "secondCount": 51,
    "area": "광주(경기)"
  },
  {
    "placeId": "32995383",
    "name": "청계산화로구이",
    "category": "육류,고기요리",
    "lat": 37.4431865,
    "lng": 127.0075443,
    "score": 4.42,
    "foodCount": 283,
    "secondTag": "양이 많아요",
    "secondCount": 64,
    "area": "과천"
  },
  {
    "placeId": "1253449603",
    "name": "짱구네 야끼만두",
    "category": "종합분식",
    "lat": 37.5814347,
    "lng": 127.0432419,
    "score": 4.33,
    "foodCount": 13,
    "secondTag": "친절해요",
    "secondCount": 3,
    "area": "청량리"
  },
  {
    "placeId": "34228055",
    "name": "쌍문각갈비탕",
    "category": "갈비탕",
    "lat": 37.6502077,
    "lng": 127.02852,
    "score": 4.29,
    "foodCount": 605,
    "secondTag": "친절해요",
    "secondCount": 141,
    "area": "쌍문"
  },
  {
    "placeId": "12928524",
    "name": "창신동매운족발",
    "category": "족발,보쌈",
    "lat": 37.5730483,
    "lng": 127.011522,
    "score": 4.28,
    "foodCount": 2331,
    "secondTag": "특별한 메뉴가 있어요",
    "secondCount": 545,
    "area": "동대문"
  },
  {
    "placeId": "1553968671",
    "name": "한상차림 코다리명가 백운호수점",
    "category": "해물,생선요리",
    "lat": 37.38074,
    "lng": 126.9997977,
    "score": 4.28,
    "foodCount": 1383,
    "secondTag": "재료가 신선해요",
    "secondCount": 323,
    "area": "의왕"
  },
  {
    "placeId": "11802675",
    "name": "교촌치킨 풍무점",
    "category": "치킨,닭강정",
    "lat": 37.6069489,
    "lng": 126.7265232,
    "score": 4.28,
    "foodCount": 278,
    "secondTag": "재료가 신선해요",
    "secondCount": 65,
    "area": "김포 풍무"
  },
  {
    "placeId": "11710847",
    "name": "압구정하루",
    "category": "돈가스",
    "lat": 37.5268197,
    "lng": 127.0382274,
    "score": 4.26,
    "foodCount": 1393,
    "secondTag": "재료가 신선해요",
    "secondCount": 327,
    "area": "압구정"
  },
  {
    "placeId": "13441520",
    "name": "신정닭발 본점",
    "category": "닭발",
    "lat": 37.518664,
    "lng": 126.854168,
    "score": 4.25,
    "foodCount": 404,
    "secondTag": "가성비가 좋아요",
    "secondCount": 95,
    "area": "신정"
  },
  {
    "placeId": "37236664",
    "name": "대관원",
    "category": "중식당",
    "lat": 37.5294328,
    "lng": 126.8979381,
    "score": 4.23,
    "foodCount": 851,
    "secondTag": "친절해요",
    "secondCount": 201,
    "area": "당산"
  },
  {
    "placeId": "32202390",
    "name": "나정순할매쭈꾸미 금촌",
    "category": "한식",
    "lat": 37.7565631,
    "lng": 126.7734608,
    "score": 4.21,
    "foodCount": 328,
    "secondTag": "재료가 신선해요",
    "secondCount": 78,
    "area": "파주 금촌"
  },
  {
    "placeId": "1723464797",
    "name": "청년다방 일산마두점",
    "category": "분식",
    "lat": 37.6579837,
    "lng": 126.7877094,
    "score": 4.2,
    "foodCount": 248,
    "secondTag": "친절해요",
    "secondCount": 59,
    "area": "일산 마두"
  },
  {
    "placeId": "525758351",
    "name": "오빠네옛날떡볶이 화정점",
    "category": "떡볶이",
    "lat": 37.6331688,
    "lng": 126.832001,
    "score": 4.2,
    "foodCount": 760,
    "secondTag": "양이 많아요",
    "secondCount": 181,
    "area": "고양 화정"
  },
  {
    "placeId": "37822795",
    "name": "동대문엽기떡볶이 길음점",
    "category": "분식",
    "lat": 37.6034259,
    "lng": 127.0243897,
    "score": 4.19,
    "foodCount": 323,
    "secondTag": "양이 많아요",
    "secondCount": 77,
    "area": "길음"
  },
  {
    "placeId": "11802578",
    "name": "교촌치킨 상계역점",
    "category": "치킨,닭강정",
    "lat": 37.6619668,
    "lng": 127.0755885,
    "score": 4.17,
    "foodCount": 338,
    "secondTag": "친절해요",
    "secondCount": 81,
    "area": "상계"
  },
  {
    "placeId": "13187597",
    "name": "금촌능이버섯백숙",
    "category": "백숙,삼계탕",
    "lat": 37.7551112,
    "lng": 126.7745715,
    "score": 4.17,
    "foodCount": 246,
    "secondTag": "친절해요",
    "secondCount": 59,
    "area": "파주 금촌"
  },
  {
    "placeId": "2026516956",
    "name": "버거킹 안산한대앞역점",
    "category": "햄버거",
    "lat": 37.3095819,
    "lng": 126.8515132,
    "score": 4.15,
    "foodCount": 54,
    "secondTag": "혼밥하기 좋아요",
    "secondCount": 13,
    "area": "안산 한대앞"
  },
  {
    "placeId": "1775094655",
    "name": "맘스터치 불광1호점",
    "category": "햄버거",
    "lat": 37.613945,
    "lng": 126.9322699,
    "score": 4.14,
    "foodCount": 290,
    "secondTag": "가성비가 좋아요",
    "secondCount": 70,
    "area": "불광"
  },
  {
    "placeId": "18436754",
    "name": "이영후족발보쌈 신정네거리본점",
    "category": "족발,보쌈",
    "lat": 37.5221546,
    "lng": 126.8525469,
    "score": 4.14,
    "foodCount": 91,
    "secondTag": "친절해요",
    "secondCount": 22,
    "area": "신정"
  },
  {
    "placeId": "11869387",
    "name": "명가소나무집",
    "category": "오리요리",
    "lat": 37.6504769,
    "lng": 127.1101397,
    "score": 4.13,
    "foodCount": 529,
    "secondTag": "양이 많아요",
    "secondCount": 128,
    "area": "남양주 별내"
  },
  {
    "placeId": "1832495407",
    "name": "신가네코다리 본점",
    "category": "해물,생선요리",
    "lat": 37.6472083,
    "lng": 127.0335155,
    "score": 4.1,
    "foodCount": 918,
    "secondTag": "친절해요",
    "secondCount": 224,
    "area": "쌍문"
  },
  {
    "placeId": "32214701",
    "name": "대덕골보쌈칼국수",
    "category": "족발,보쌈",
    "lat": 37.2365368,
    "lng": 127.2036788,
    "score": 4.1,
    "foodCount": 1763,
    "secondTag": "친절해요",
    "secondCount": 430,
    "area": "용인 처인"
  },
  {
    "placeId": "36112273",
    "name": "하동관 코엑스몰직영점",
    "category": "곰탕,설렁탕",
    "lat": 37.5112552,
    "lng": 127.0597543,
    "score": 4.06,
    "foodCount": 1465,
    "secondTag": "혼밥하기 좋아요",
    "secondCount": 361,
    "area": "삼성역"
  },
  {
    "placeId": "11711086",
    "name": "명일원조닭발",
    "category": "닭발",
    "lat": 37.5503101,
    "lng": 127.1446509,
    "score": 4.06,
    "foodCount": 946,
    "secondTag": "친절해요",
    "secondCount": 233,
    "area": "명일"
  },
  {
    "placeId": "36504815",
    "name": "마왕족발 신정점",
    "category": "족발,보쌈",
    "lat": 37.5223996,
    "lng": 126.8526979,
    "score": 4.06,
    "foodCount": 134,
    "secondTag": "친절해요",
    "secondCount": 33,
    "area": "신정"
  },
  {
    "placeId": "1749938031",
    "name": "KFC 창동역",
    "category": "햄버거",
    "lat": 37.6544488,
    "lng": 127.050059,
    "score": 4.05,
    "foodCount": 717,
    "secondTag": "재료가 신선해요",
    "secondCount": 177,
    "area": "창동"
  },
  {
    "placeId": "12798383",
    "name": "청운누룽지백숙",
    "category": "백숙,삼계탕",
    "lat": 37.3842236,
    "lng": 127.0106235,
    "score": 4.05,
    "foodCount": 1258,
    "secondTag": "매장이 넓어요",
    "secondCount": 311,
    "area": "의왕"
  },
  {
    "placeId": "17880671",
    "name": "돼지집",
    "category": "돼지고기구이",
    "lat": 37.4359563,
    "lng": 126.8857925,
    "score": 4.05,
    "foodCount": 5155,
    "secondTag": "매장이 넓어요",
    "secondCount": 1274,
    "area": "광명"
  },
  {
    "placeId": "1739617212",
    "name": "불난집",
    "category": "떡볶이",
    "lat": 37.6023044,
    "lng": 127.0215848,
    "score": 4.04,
    "foodCount": 727,
    "secondTag": "매장이 청결해요",
    "secondCount": 180,
    "area": "길음"
  },
  {
    "placeId": "48783148",
    "name": "청운누룽지백숙2호점",
    "category": "백숙,삼계탕",
    "lat": 37.378407,
    "lng": 126.9956057,
    "score": 4.03,
    "foodCount": 883,
    "secondTag": "매장이 넓어요",
    "secondCount": 219,
    "area": "의왕"
  },
  {
    "placeId": "20343730",
    "name": "여신족발",
    "category": "족발,보쌈",
    "lat": 37.4822726,
    "lng": 126.8843098,
    "score": 4.01,
    "foodCount": 273,
    "secondTag": "양이 많아요",
    "secondCount": 68,
    "area": "가산디지털"
  },
  {
    "placeId": "20277631",
    "name": "오리마을숯불회전구이 도봉점",
    "category": "오리요리",
    "lat": 37.6493274,
    "lng": 127.0271268,
    "score": 3.99,
    "foodCount": 503,
    "secondTag": "친절해요",
    "secondCount": 126,
    "area": "쌍문"
  },
  {
    "placeId": "11592650",
    "name": "명동교자 본점",
    "category": "칼국수,만두",
    "lat": 37.5625491,
    "lng": 126.9856025,
    "score": 3.97,
    "foodCount": 23804,
    "secondTag": "양이 많아요",
    "secondCount": 6000,
    "area": "명동"
  },
  {
    "placeId": "13218760",
    "name": "뿅의전설 금광점",
    "category": "중식당",
    "lat": 37.4442693,
    "lng": 127.1593639,
    "score": 3.95,
    "foodCount": 1277,
    "secondTag": "양이 많아요",
    "secondCount": 323,
    "area": "성남 중원"
  },
  {
    "placeId": "19412363",
    "name": "대화정 진짜해장국",
    "category": "한식",
    "lat": 37.5675754,
    "lng": 127.0077551,
    "score": 3.94,
    "foodCount": 1357,
    "secondTag": "양이 많아요",
    "secondCount": 344,
    "area": "동대문"
  },
  {
    "placeId": "31689760",
    "name": "화곡영양족발",
    "category": "족발,보쌈",
    "lat": 37.5432636,
    "lng": 126.8434604,
    "score": 3.94,
    "foodCount": 5207,
    "secondTag": "양이 많아요",
    "secondCount": 1323,
    "area": "발산"
  },
  {
    "placeId": "18511255",
    "name": "만다린",
    "category": "중식당",
    "lat": 37.4816431,
    "lng": 126.8816099,
    "score": 3.93,
    "foodCount": 275,
    "secondTag": "가성비가 좋아요",
    "secondCount": 70,
    "area": "가산디지털"
  },
  {
    "placeId": "18356757",
    "name": "고려왕족발 본점",
    "category": "족발,보쌈",
    "lat": 37.4325458,
    "lng": 127.1313902,
    "score": 3.93,
    "foodCount": 778,
    "secondTag": "친절해요",
    "secondCount": 198,
    "area": "성남 모란"
  },
  {
    "placeId": "67104691",
    "name": "한촌설렁탕 옥수역점",
    "category": "곰탕,설렁탕",
    "lat": 37.5416947,
    "lng": 127.018297,
    "score": 3.92,
    "foodCount": 243,
    "secondTag": "매장이 넓어요",
    "secondCount": 62,
    "area": "옥수"
  },
  {
    "placeId": "12002425",
    "name": "굽네치킨 면목점",
    "category": "치킨,닭강정",
    "lat": 37.5791949,
    "lng": 127.0833772,
    "score": 3.92,
    "foodCount": 98,
    "secondTag": "친절해요",
    "secondCount": 25,
    "area": "면목"
  },
  {
    "placeId": "35201886",
    "name": "동대문엽기떡볶이 안산한대앞역점",
    "category": "분식",
    "lat": 37.3082574,
    "lng": 126.852051,
    "score": 3.92,
    "foodCount": 467,
    "secondTag": "양이 많아요",
    "secondCount": 119,
    "area": "안산 한대앞"
  },
  {
    "placeId": "11619295",
    "name": "진옥화할매원조닭한마리",
    "category": "닭요리",
    "lat": 37.57035,
    "lng": 127.0057389,
    "score": 3.91,
    "foodCount": 4517,
    "secondTag": "매장이 넓어요",
    "secondCount": 1154,
    "area": "동대문"
  },
  {
    "placeId": "18677833",
    "name": "옛골가마솥뼈다귀",
    "category": "감자탕",
    "lat": 37.3948079,
    "lng": 126.976104,
    "score": 3.91,
    "foodCount": 1675,
    "secondTag": "양이 많아요",
    "secondCount": 428,
    "area": "안양 평촌"
  },
  {
    "placeId": "31077615",
    "name": "총각쭈꾸미",
    "category": "주꾸미요리",
    "lat": 37.607844,
    "lng": 126.7223644,
    "score": 3.91,
    "foodCount": 426,
    "secondTag": "재료가 신선해요",
    "secondCount": 109,
    "area": "김포 풍무"
  },
  {
    "placeId": "374247156",
    "name": "삼교리동치미막국수 용인영덕점",
    "category": "막국수",
    "lat": 37.2719288,
    "lng": 127.0688298,
    "score": 3.88,
    "foodCount": 536,
    "secondTag": "주차하기 편해요",
    "secondCount": 138,
    "area": "용인 기흥"
  },
  {
    "placeId": "32142629",
    "name": "호수면옥",
    "category": "냉면",
    "lat": 37.6630895,
    "lng": 126.7633125,
    "score": 3.87,
    "foodCount": 627,
    "secondTag": "매장이 넓어요",
    "secondCount": 162,
    "area": "일산 정발산"
  },
  {
    "placeId": "32610124",
    "name": "고향옥얼큰순대국 본점",
    "category": "순대,순댓국",
    "lat": 37.6597236,
    "lng": 126.7670189,
    "score": 3.85,
    "foodCount": 1133,
    "secondTag": "친절해요",
    "secondCount": 294,
    "area": "일산 정발산"
  },
  {
    "placeId": "11781751",
    "name": "도미노피자 상계점",
    "category": "피자",
    "lat": 37.6615036,
    "lng": 127.0570512,
    "score": 3.84,
    "foodCount": 461,
    "secondTag": "재료가 신선해요",
    "secondCount": 120,
    "area": "상계"
  },
  {
    "placeId": "1605045524",
    "name": "명인시골통닭 사당본점",
    "category": "치킨,닭강정",
    "lat": 37.4784615,
    "lng": 126.981175,
    "score": 3.84,
    "foodCount": 415,
    "secondTag": "친절해요",
    "secondCount": 108,
    "area": "사당"
  },
  {
    "placeId": "11721511",
    "name": "중림장설렁탕",
    "category": "곰탕,설렁탕",
    "lat": 37.5602761,
    "lng": 126.9677079,
    "score": 3.83,
    "foodCount": 1227,
    "secondTag": "친절해요",
    "secondCount": 320,
    "area": "서울역"
  },
  {
    "placeId": "36294815",
    "name": "봉평메밀촌 홍제점",
    "category": "막국수",
    "lat": 37.5891329,
    "lng": 126.9427311,
    "score": 3.82,
    "foodCount": 428,
    "secondTag": "친절해요",
    "secondCount": 112,
    "area": "홍제"
  },
  {
    "placeId": "17990023",
    "name": "뚱보냉면",
    "category": "냉면",
    "lat": 37.6463009,
    "lng": 127.0364808,
    "score": 3.82,
    "foodCount": 733,
    "secondTag": "친절해요",
    "secondCount": 192,
    "area": "창동"
  },
  {
    "placeId": "11808302",
    "name": "KFC 평택점",
    "category": "햄버거",
    "lat": 36.9932644,
    "lng": 127.0869298,
    "score": 3.82,
    "foodCount": 497,
    "secondTag": "가성비가 좋아요",
    "secondCount": 130,
    "area": "평택역"
  },
  {
    "placeId": "869014292",
    "name": "뽀빠이우렁추어탕 신정점",
    "category": "추어탕",
    "lat": 37.5217358,
    "lng": 126.8603348,
    "score": 3.81,
    "foodCount": 297,
    "secondTag": "재료가 신선해요",
    "secondCount": 78,
    "area": "신정"
  },
  {
    "placeId": "1696436879",
    "name": "백년갈비 신정점",
    "category": "육류,고기요리",
    "lat": 37.5221311,
    "lng": 126.8523761,
    "score": 3.81,
    "foodCount": 286,
    "secondTag": "친절해요",
    "secondCount": 75,
    "area": "신정"
  },
  {
    "placeId": "13582187",
    "name": "신포찬누리닭강정",
    "category": "치킨,닭강정",
    "lat": 37.471735,
    "lng": 126.6282276,
    "score": 3.81,
    "foodCount": 2568,
    "secondTag": "양이 많아요",
    "secondCount": 674,
    "area": "인천 동인천"
  },
  {
    "placeId": "12041824",
    "name": "함흥곰보냉면",
    "category": "냉면",
    "lat": 37.3843015,
    "lng": 126.9607748,
    "score": 3.81,
    "foodCount": 579,
    "secondTag": "친절해요",
    "secondCount": 152,
    "area": "안양 평촌"
  },
  {
    "placeId": "21037816",
    "name": "함경도찹쌀순대",
    "category": "순대,순댓국",
    "lat": 37.4948188,
    "lng": 127.1213661,
    "score": 3.8,
    "foodCount": 6069,
    "secondTag": "양이 많아요",
    "secondCount": 1598,
    "area": "가락시장"
  },
  {
    "placeId": "13157800",
    "name": "불난닭발",
    "category": "닭발",
    "lat": 37.5373047,
    "lng": 127.0840218,
    "score": 3.8,
    "foodCount": 877,
    "secondTag": "친절해요",
    "secondCount": 231,
    "area": "구의"
  },
  {
    "placeId": "19877349",
    "name": "닭한마리 공릉본점",
    "category": "닭요리",
    "lat": 37.621252,
    "lng": 127.0747069,
    "score": 3.8,
    "foodCount": 2673,
    "secondTag": "친절해요",
    "secondCount": 703,
    "area": "공릉"
  },
  {
    "placeId": "37929896",
    "name": "두물머리연핫도그",
    "category": "핫도그",
    "lat": 37.5347662,
    "lng": 127.316822,
    "score": 3.8,
    "foodCount": 6969,
    "secondTag": "특별한 메뉴가 있어요",
    "secondCount": 1836,
    "area": "양평"
  },
  {
    "placeId": "20134440",
    "name": "통큰손쭈꾸미마을 계산본점",
    "category": "주꾸미요리",
    "lat": 37.5370489,
    "lng": 126.7283716,
    "score": 3.78,
    "foodCount": 3665,
    "secondTag": "재료가 신선해요",
    "secondCount": 969,
    "area": "인천 계양"
  },
  {
    "placeId": "11864484",
    "name": "함흥면옥 압구정점",
    "category": "냉면",
    "lat": 37.5222379,
    "lng": 127.0284792,
    "score": 3.74,
    "foodCount": 782,
    "secondTag": "친절해요",
    "secondCount": 209,
    "area": "압구정"
  },
  {
    "placeId": "36177798",
    "name": "신전떡볶이 면목점",
    "category": "분식",
    "lat": 37.5821136,
    "lng": 127.0899848,
    "score": 3.74,
    "foodCount": 217,
    "secondTag": "가성비가 좋아요",
    "secondCount": 58,
    "area": "면목"
  },
  {
    "placeId": "198903313",
    "name": "쭈꾸미킹쌍문점",
    "category": "주꾸미요리",
    "lat": 37.6442651,
    "lng": 127.0317635,
    "score": 3.74,
    "foodCount": 1343,
    "secondTag": "가성비가 좋아요",
    "secondCount": 359,
    "area": "쌍문"
  },
  {
    "placeId": "613586450",
    "name": "이대가장수촌",
    "category": "백숙,삼계탕",
    "lat": 37.3014096,
    "lng": 126.9431705,
    "score": 3.74,
    "foodCount": 269,
    "secondTag": "친절해요",
    "secondCount": 72,
    "area": "의왕"
  },
  {
    "placeId": "37033341",
    "name": "송담추어탕 서울미아점",
    "category": "추어탕",
    "lat": 37.611675,
    "lng": 127.0305729,
    "score": 3.73,
    "foodCount": 2142,
    "secondTag": "재료가 신선해요",
    "secondCount": 574,
    "area": "미아"
  },
  {
    "placeId": "11660397",
    "name": "BBQ치킨 명일점",
    "category": "치킨,닭강정",
    "lat": 37.5492915,
    "lng": 127.1477584,
    "score": 3.72,
    "foodCount": 67,
    "secondTag": "재료가 신선해요",
    "secondCount": 18,
    "area": "명일"
  },
  {
    "placeId": "20885141",
    "name": "중국성",
    "category": "중식당",
    "lat": 37.5951984,
    "lng": 127.082937,
    "score": 3.72,
    "foodCount": 346,
    "secondTag": "양이 많아요",
    "secondCount": 93,
    "area": "중화"
  },
  {
    "placeId": "20771007",
    "name": "산도토리임자탕 창동본점",
    "category": "한식",
    "lat": 37.639653,
    "lng": 127.040101,
    "score": 3.72,
    "foodCount": 2074,
    "secondTag": "특별한 메뉴가 있어요",
    "secondCount": 557,
    "area": "창동"
  },
  {
    "placeId": "37293237",
    "name": "봉평옹심이메밀칼국수",
    "category": "칼국수,만두",
    "lat": 37.619769,
    "lng": 126.9219984,
    "score": 3.72,
    "foodCount": 2517,
    "secondTag": "양이 많아요",
    "secondCount": 677,
    "area": "연신내"
  },
  {
    "placeId": "1200013040",
    "name": "떡산",
    "category": "떡볶이",
    "lat": 37.6195928,
    "lng": 126.9224109,
    "score": 3.72,
    "foodCount": 665,
    "secondTag": "친절해요",
    "secondCount": 179,
    "area": "불광"
  },
  {
    "placeId": "11820855",
    "name": "부산복칼국수",
    "category": "칼국수,만두",
    "lat": 37.3830792,
    "lng": 126.9618907,
    "score": 3.71,
    "foodCount": 910,
    "secondTag": "재료가 신선해요",
    "secondCount": 245,
    "area": "안양 평촌"
  },
  {
    "placeId": "37437117",
    "name": "칸지고고 중앙동점",
    "category": "중식당",
    "lat": 37.4289127,
    "lng": 126.991183,
    "score": 3.71,
    "foodCount": 478,
    "secondTag": "친절해요",
    "secondCount": 129,
    "area": "과천"
  },
  {
    "placeId": "1222371333",
    "name": "오근내5닭갈비 안녕인사동점",
    "category": "닭갈비",
    "lat": 37.5744296,
    "lng": 126.9835484,
    "score": 3.7,
    "foodCount": 637,
    "secondTag": "친절해요",
    "secondCount": 172,
    "area": "인사동"
  },
  {
    "placeId": "13570745",
    "name": "용화반점",
    "category": "중식당",
    "lat": 37.4720049,
    "lng": 126.6354289,
    "score": 3.7,
    "foodCount": 696,
    "secondTag": "친절해요",
    "secondCount": 188,
    "area": "인천 동인천"
  },
  {
    "placeId": "21846419",
    "name": "능이백숙산채마을",
    "category": "백숙,삼계탕",
    "lat": 37.8474783,
    "lng": 127.061711,
    "score": 3.7,
    "foodCount": 263,
    "secondTag": "친절해요",
    "secondCount": 71,
    "area": "양주 덕정"
  },
  {
    "placeId": "18530103",
    "name": "장안면옥",
    "category": "냉면",
    "lat": 37.0099167,
    "lng": 127.26945,
    "score": 3.7,
    "foodCount": 636,
    "secondTag": "주차하기 편해요",
    "secondCount": 172,
    "area": "안성"
  },
  {
    "placeId": "11735157",
    "name": "조마루감자탕 신정점",
    "category": "감자탕",
    "lat": 37.5186282,
    "lng": 126.8420636,
    "score": 3.69,
    "foodCount": 236,
    "secondTag": "친절해요",
    "secondCount": 64,
    "area": "신정"
  },
  {
    "placeId": "12025444",
    "name": "부평막국수",
    "category": "냉면",
    "lat": 37.4974092,
    "lng": 126.7217983,
    "score": 3.67,
    "foodCount": 712,
    "secondTag": "친절해요",
    "secondCount": 194,
    "area": "인천 부평"
  },
  {
    "placeId": "19856775",
    "name": "뽀까뽀까 신볶음닭 주안점",
    "category": "한식",
    "lat": 37.4622916,
    "lng": 126.6822733,
    "score": 3.67,
    "foodCount": 198,
    "secondTag": "양이 많아요",
    "secondCount": 54,
    "area": "인천 주안"
  },
  {
    "placeId": "1013931704",
    "name": "청와옥 군자역직영점",
    "category": "순대,순댓국",
    "lat": 37.5565019,
    "lng": 127.0804536,
    "score": 3.66,
    "foodCount": 2874,
    "secondTag": "양이 많아요",
    "secondCount": 786,
    "area": "군자"
  },
  {
    "placeId": "31394636",
    "name": "전설의짬뽕 묵동점",
    "category": "중식당",
    "lat": 37.6142369,
    "lng": 127.0765125,
    "score": 3.65,
    "foodCount": 733,
    "secondTag": "재료가 신선해요",
    "secondCount": 201,
    "area": "중화"
  },
  {
    "placeId": "21551868",
    "name": "지호한방삼계탕 미아점",
    "category": "백숙,삼계탕",
    "lat": 37.6095455,
    "lng": 127.0318991,
    "score": 3.65,
    "foodCount": 817,
    "secondTag": "친절해요",
    "secondCount": 224,
    "area": "미아"
  },
  {
    "placeId": "36844837",
    "name": "현선이네 용산본점",
    "category": "떡볶이",
    "lat": 37.5311551,
    "lng": 126.9692251,
    "score": 3.64,
    "foodCount": 3624,
    "secondTag": "매장이 넓어요",
    "secondCount": 996,
    "area": "용산역"
  },
  {
    "placeId": "33102280",
    "name": "하이롱양꼬치 라페스타F동점",
    "category": "양꼬치",
    "lat": 37.6618724,
    "lng": 126.7674098,
    "score": 3.64,
    "foodCount": 266,
    "secondTag": "친절해요",
    "secondCount": 73,
    "area": "일산 라페스타"
  },
  {
    "placeId": "17850012",
    "name": "유래등",
    "category": "중식당",
    "lat": 37.6196785,
    "lng": 127.1402375,
    "score": 3.63,
    "foodCount": 921,
    "secondTag": "재료가 신선해요",
    "secondCount": 254,
    "area": "구리"
  },
  {
    "placeId": "1428295394",
    "name": "충무로 식껍 1호점",
    "category": "육류,고기요리",
    "lat": 37.5641759,
    "lng": 126.9930434,
    "score": 3.61,
    "foodCount": 321,
    "secondTag": "친절해요",
    "secondCount": 89,
    "area": "을지로"
  },
  {
    "placeId": "38314381",
    "name": "부산아지매국밥 명일역점",
    "category": "국밥",
    "lat": 37.5516567,
    "lng": 127.1436567,
    "score": 3.6,
    "foodCount": 173,
    "secondTag": "친절해요",
    "secondCount": 48,
    "area": "명일"
  },
  {
    "placeId": "33586234",
    "name": "착한낙지 주안점",
    "category": "낙지요리",
    "lat": 37.4553014,
    "lng": 126.6803895,
    "score": 3.6,
    "foodCount": 1244,
    "secondTag": "매장이 넓어요",
    "secondCount": 346,
    "area": "인천 주안"
  },
  {
    "placeId": "37642359",
    "name": "박은자맛사랑 산본점",
    "category": "해물,생선요리",
    "lat": 37.3595464,
    "lng": 126.9330442,
    "score": 3.6,
    "foodCount": 764,
    "secondTag": "친절해요",
    "secondCount": 212,
    "area": "군포 산본"
  },
  {
    "placeId": "11799815",
    "name": "BBQ치킨 패밀리타운점",
    "category": "치킨,닭강정",
    "lat": 37.4915448,
    "lng": 127.1160549,
    "score": 3.59,
    "foodCount": 1084,
    "secondTag": "재료가 신선해요",
    "secondCount": 302,
    "area": "가락시장"
  },
  {
    "placeId": "1912279546",
    "name": "보배반점 상봉점",
    "category": "중식당",
    "lat": 37.5969816,
    "lng": 127.0886057,
    "score": 3.59,
    "foodCount": 581,
    "secondTag": "친절해요",
    "secondCount": 162,
    "area": "중화"
  },
  {
    "placeId": "17853757",
    "name": "돌다리보쌈.칼국수",
    "category": "족발,보쌈",
    "lat": 37.5991829,
    "lng": 127.1400558,
    "score": 3.59,
    "foodCount": 1595,
    "secondTag": "가성비가 좋아요",
    "secondCount": 444,
    "area": "구리"
  },
  {
    "placeId": "38229438",
    "name": "춘향골남원추어탕 상계점",
    "category": "추어탕",
    "lat": 37.674825,
    "lng": 127.0601449,
    "score": 3.58,
    "foodCount": 638,
    "secondTag": "친절해요",
    "secondCount": 178,
    "area": "상계"
  },
  {
    "placeId": "1976412280",
    "name": "평강삼계탕 중앙대점",
    "category": "백숙,삼계탕",
    "lat": 37.507885,
    "lng": 126.9629234,
    "score": 3.58,
    "foodCount": 247,
    "secondTag": "매장이 넓어요",
    "secondCount": 69,
    "area": "흑석"
  },
  {
    "placeId": "37183139",
    "name": "도미노피자 양주점",
    "category": "피자",
    "lat": 37.8379076,
    "lng": 127.0625192,
    "score": 3.58,
    "foodCount": 315,
    "secondTag": "재료가 신선해요",
    "secondCount": 88,
    "area": "양주 덕정"
  },
  {
    "placeId": "1866278446",
    "name": "옐로우피자 면목점",
    "category": "피자",
    "lat": 37.5828741,
    "lng": 127.0865532,
    "score": 3.57,
    "foodCount": 100,
    "secondTag": "가성비가 좋아요",
    "secondCount": 28,
    "area": "면목"
  },
  {
    "placeId": "11678773",
    "name": "진주집",
    "category": "국수",
    "lat": 37.5206924,
    "lng": 126.9268251,
    "score": 3.57,
    "foodCount": 6281,
    "secondTag": "양이 많아요",
    "secondCount": 1761,
    "area": "여의도"
  },
  {
    "placeId": "20969271",
    "name": "팔미낙지한마리수제비",
    "category": "낙지요리",
    "lat": 37.5079294,
    "lng": 126.963669,
    "score": 3.56,
    "foodCount": 324,
    "secondTag": "친절해요",
    "secondCount": 91,
    "area": "흑석"
  },
  {
    "placeId": "13179363",
    "name": "벌말매운탕",
    "category": "매운탕,해물탕",
    "lat": 37.5787164,
    "lng": 126.7782914,
    "score": 3.56,
    "foodCount": 2010,
    "secondTag": "양이 많아요",
    "secondCount": 564,
    "area": "인천 계양"
  },
  {
    "placeId": "1896049525",
    "name": "밀촌",
    "category": "칼국수,만두",
    "lat": 37.3821109,
    "lng": 126.9629353,
    "score": 3.56,
    "foodCount": 491,
    "secondTag": "재료가 신선해요",
    "secondCount": 138,
    "area": "안양 평촌"
  },
  {
    "placeId": "1363786011",
    "name": "경성함바그 명동점",
    "category": "스테이크,립",
    "lat": 37.5651668,
    "lng": 126.9840732,
    "score": 3.54,
    "foodCount": 308,
    "secondTag": "친절해요",
    "secondCount": 87,
    "area": "명동"
  },
  {
    "placeId": "1573028680",
    "name": "KFC 김포장기역",
    "category": "햄버거",
    "lat": 37.6437879,
    "lng": 126.6684853,
    "score": 3.54,
    "foodCount": 453,
    "secondTag": "재료가 신선해요",
    "secondCount": 128,
    "area": "김포 장기"
  },
  {
    "placeId": "1268139042",
    "name": "수작카츠 명일점",
    "category": "돈가스",
    "lat": 37.5504326,
    "lng": 127.1454928,
    "score": 3.53,
    "foodCount": 462,
    "secondTag": "혼밥하기 좋아요",
    "secondCount": 131,
    "area": "명일"
  },
  {
    "placeId": "31413184",
    "name": "부암동치킨",
    "category": "치킨,닭강정",
    "lat": 37.5445671,
    "lng": 126.967319,
    "score": 3.53,
    "foodCount": 212,
    "secondTag": "친절해요",
    "secondCount": 60,
    "area": "효창공원"
  },
  {
    "placeId": "36174954",
    "name": "동대문엽기떡볶이 상도노량진점",
    "category": "분식",
    "lat": 37.5132746,
    "lng": 126.9397159,
    "score": 3.53,
    "foodCount": 357,
    "secondTag": "양이 많아요",
    "secondCount": 101,
    "area": "노량진"
  },
  {
    "placeId": "11679883",
    "name": "명화원",
    "category": "중식당",
    "lat": 37.536355,
    "lng": 126.9746187,
    "score": 3.51,
    "foodCount": 594,
    "secondTag": "가성비가 좋아요",
    "secondCount": 169,
    "area": "삼각지"
  },
  {
    "placeId": "1031667714",
    "name": "가마로강정 면목점",
    "category": "치킨,닭강정",
    "lat": 37.5712934,
    "lng": 127.0842825,
    "score": 3.5,
    "foodCount": 42,
    "secondTag": "가성비가 좋아요",
    "secondCount": 12,
    "area": "면목"
  },
  {
    "placeId": "1881169254",
    "name": "또보겠지떡볶이집 숲속동화점",
    "category": "분식",
    "lat": 37.5606312,
    "lng": 126.8327205,
    "score": 3.5,
    "foodCount": 984,
    "secondTag": "친절해요",
    "secondCount": 281,
    "area": "마곡"
  },
  {
    "placeId": "11678754",
    "name": "영동설렁탕",
    "category": "곰탕,설렁탕",
    "lat": 37.5161676,
    "lng": 127.0173691,
    "score": 3.49,
    "foodCount": 2481,
    "secondTag": "매장이 넓어요",
    "secondCount": 710,
    "area": "신사역"
  },
  {
    "placeId": "1906127311",
    "name": "잠수교집 잠실2 직영점",
    "category": "돼지고기구이",
    "lat": 37.5059533,
    "lng": 127.0993724,
    "score": 3.49,
    "foodCount": 363,
    "secondTag": "친절해요",
    "secondCount": 104,
    "area": "석촌"
  },
  {
    "placeId": "18241656",
    "name": "서울쌈냉면",
    "category": "냉면",
    "lat": 37.5874937,
    "lng": 127.0289056,
    "score": 3.49,
    "foodCount": 566,
    "secondTag": "양이 많아요",
    "secondCount": 162,
    "area": "안암"
  },
  {
    "placeId": "1044292022",
    "name": "도마다리뼈다귀전문점",
    "category": "감자탕",
    "lat": 37.6569336,
    "lng": 127.0383912,
    "score": 3.49,
    "foodCount": 708,
    "secondTag": "양이 많아요",
    "secondCount": 203,
    "area": "쌍문"
  },
  {
    "placeId": "87117951",
    "name": "차이나타운",
    "category": "중식당",
    "lat": 37.6566462,
    "lng": 127.0377578,
    "score": 3.49,
    "foodCount": 248,
    "secondTag": "친절해요",
    "secondCount": 71,
    "area": "쌍문"
  },
  {
    "placeId": "37879472",
    "name": "흥부골숯불돼지왕갈비",
    "category": "돼지고기구이",
    "lat": 37.5057034,
    "lng": 127.0986863,
    "score": 3.48,
    "foodCount": 1064,
    "secondTag": "매장이 넓어요",
    "secondCount": 306,
    "area": "석촌"
  },
  {
    "placeId": "1317659759",
    "name": "대관령감자옹심이",
    "category": "한식",
    "lat": 37.6552512,
    "lng": 127.0430027,
    "score": 3.48,
    "foodCount": 1922,
    "secondTag": "양이 많아요",
    "secondCount": 553,
    "area": "창동"
  },
  {
    "placeId": "320206492",
    "name": "saigonlee",
    "category": "베트남음식",
    "lat": 37.5112672,
    "lng": 126.940042,
    "score": 3.48,
    "foodCount": 1031,
    "secondTag": "양이 많아요",
    "secondCount": 296,
    "area": "노량진"
  },
  {
    "placeId": "18714649",
    "name": "안동장",
    "category": "중식당",
    "lat": 37.5081772,
    "lng": 126.9609989,
    "score": 3.48,
    "foodCount": 728,
    "secondTag": "친절해요",
    "secondCount": 209,
    "area": "흑석"
  },
  {
    "placeId": "11712743",
    "name": "파파존스 옥수점",
    "category": "피자",
    "lat": 37.54535,
    "lng": 127.016952,
    "score": 3.47,
    "foodCount": 111,
    "secondTag": "친절해요",
    "secondCount": 32,
    "area": "옥수"
  },
  {
    "placeId": "19882048",
    "name": "동해오징어보쌈",
    "category": "오징어요리",
    "lat": 37.4002039,
    "lng": 126.921992,
    "score": 3.47,
    "foodCount": 1596,
    "secondTag": "재료가 신선해요",
    "secondCount": 460,
    "area": "안양역"
  },
  {
    "placeId": "1130571528",
    "name": "동대문엽기떡볶이 부천역점",
    "category": "분식",
    "lat": 37.487941,
    "lng": 126.7823782,
    "score": 3.47,
    "foodCount": 454,
    "secondTag": "양이 많아요",
    "secondCount": 131,
    "area": "부천역"
  },
  {
    "placeId": "1307080297",
    "name": "맥도날드 여주DT점",
    "category": "햄버거",
    "lat": 37.2802364,
    "lng": 127.636181,
    "score": 3.46,
    "foodCount": 719,
    "secondTag": "매장이 넓어요",
    "secondCount": 208,
    "area": "여주"
  },
  {
    "placeId": "31316156",
    "name": "사이코우스시 쌍문점",
    "category": "일식당",
    "lat": 37.6579417,
    "lng": 127.0362655,
    "score": 3.45,
    "foodCount": 1806,
    "secondTag": "재료가 신선해요",
    "secondCount": 523,
    "area": "쌍문"
  },
  {
    "placeId": "1682847133",
    "name": "족발야시장 신정뉴타운점",
    "category": "족발,보쌈",
    "lat": 37.5172794,
    "lng": 126.8415282,
    "score": 3.45,
    "foodCount": 138,
    "secondTag": "친절해요",
    "secondCount": 40,
    "area": "신정"
  },
  {
    "placeId": "31729950",
    "name": "이학갈비중동점",
    "category": "육류,고기요리",
    "lat": 37.4969666,
    "lng": 126.7617548,
    "score": 3.45,
    "foodCount": 2717,
    "secondTag": "친절해요",
    "secondCount": 787,
    "area": "부천 중동"
  },
  {
    "placeId": "13348727",
    "name": "어랑생선구이",
    "category": "생선구이",
    "lat": 37.6572886,
    "lng": 126.7718416,
    "score": 3.45,
    "foodCount": 965,
    "secondTag": "재료가 신선해요",
    "secondCount": 280,
    "area": "일산 정발산"
  },
  {
    "placeId": "1608592628",
    "name": "담터추어탕",
    "category": "추어탕",
    "lat": 37.6431551,
    "lng": 127.1117241,
    "score": 3.45,
    "foodCount": 2325,
    "secondTag": "매장이 넓어요",
    "secondCount": 674,
    "area": "남양주 별내"
  },
  {
    "placeId": "1621091115",
    "name": "BBQ치킨 명일중앙점",
    "category": "치킨,닭강정",
    "lat": 37.5526603,
    "lng": 127.1425617,
    "score": 3.43,
    "foodCount": 72,
    "secondTag": "친절해요",
    "secondCount": 21,
    "area": "명일"
  },
  {
    "placeId": "20601232",
    "name": "나로도 치킨",
    "category": "치킨,닭강정",
    "lat": 37.3870906,
    "lng": 127.125205,
    "score": 3.43,
    "foodCount": 566,
    "secondTag": "가성비가 좋아요",
    "secondCount": 165,
    "area": "분당 서현"
  },
  {
    "placeId": "154246127",
    "name": "화진식당",
    "category": "육류,고기요리",
    "lat": 37.3590852,
    "lng": 126.9685225,
    "score": 3.43,
    "foodCount": 731,
    "secondTag": "친절해요",
    "secondCount": 213,
    "area": "의왕"
  },
  {
    "placeId": "30979598",
    "name": "라이차이",
    "category": "중식당",
    "lat": 37.483408,
    "lng": 126.7573679,
    "score": 3.42,
    "foodCount": 263,
    "secondTag": "양이 많아요",
    "secondCount": 77,
    "area": "부천 송내"
  },
  {
    "placeId": "33431627",
    "name": "신의주찹쌀순대 옥수역점",
    "category": "순대,순댓국",
    "lat": 37.5416383,
    "lng": 127.0178578,
    "score": 3.41,
    "foodCount": 361,
    "secondTag": "가성비가 좋아요",
    "secondCount": 106,
    "area": "옥수"
  },
  {
    "placeId": "33025474",
    "name": "개화산장",
    "category": "오리요리",
    "lat": 37.573821,
    "lng": 126.803968,
    "score": 3.41,
    "foodCount": 252,
    "secondTag": "양이 많아요",
    "secondCount": 74,
    "area": "김포공항"
  },
  {
    "placeId": "33299789",
    "name": "교촌치킨 가산디지털점",
    "category": "치킨,닭강정",
    "lat": 37.4802176,
    "lng": 126.8812336,
    "score": 3.41,
    "foodCount": 341,
    "secondTag": "매장이 넓어요",
    "secondCount": 100,
    "area": "가산디지털"
  },
  {
    "placeId": "37343482",
    "name": "버거킹 일산화정오일뱅크점",
    "category": "햄버거",
    "lat": 37.6307593,
    "lng": 126.8304125,
    "score": 3.39,
    "foodCount": 4194,
    "secondTag": "가성비가 좋아요",
    "secondCount": 1236,
    "area": "고양 화정"
  },
  {
    "placeId": "11731345",
    "name": "옥천고읍냉면",
    "category": "냉면",
    "lat": 37.5197299,
    "lng": 127.4635943,
    "score": 3.39,
    "foodCount": 468,
    "secondTag": "주차하기 편해요",
    "secondCount": 138,
    "area": "양평"
  },
  {
    "placeId": "13124988",
    "name": "영천영화 청담점",
    "category": "소고기구이",
    "lat": 37.5239502,
    "lng": 127.0495268,
    "score": 3.38,
    "foodCount": 1312,
    "secondTag": "고기 질이 좋아요",
    "secondCount": 388,
    "area": "청담"
  },
  {
    "placeId": "1453025092",
    "name": "산너머남촌",
    "category": "백반,가정식",
    "lat": 37.3581419,
    "lng": 126.9168451,
    "score": 3.38,
    "foodCount": 446,
    "secondTag": "반찬이 잘 나와요",
    "secondCount": 132,
    "area": "군포 산본"
  },
  {
    "placeId": "11631115",
    "name": "호수식당 본점",
    "category": "찌개,전골",
    "lat": 37.9091745,
    "lng": 127.0550917,
    "score": 3.38,
    "foodCount": 1200,
    "secondTag": "양이 많아요",
    "secondCount": 355,
    "area": "동두천"
  },
  {
    "placeId": "37672886",
    "name": "가부 본점",
    "category": "중식당",
    "lat": 37.5903487,
    "lng": 127.0152196,
    "score": 3.37,
    "foodCount": 1027,
    "secondTag": "재료가 신선해요",
    "secondCount": 305,
    "area": "성신여대"
  },
  {
    "placeId": "1264028382",
    "name": "깐부치킨 길음역점",
    "category": "치킨,닭강정",
    "lat": 37.6064086,
    "lng": 127.021543,
    "score": 3.37,
    "foodCount": 344,
    "secondTag": "친절해요",
    "secondCount": 102,
    "area": "길음"
  },
  {
    "placeId": "18078650",
    "name": "호수부대찌개 덕정점",
    "category": "찌개,전골",
    "lat": 37.8413638,
    "lng": 127.0656741,
    "score": 3.37,
    "foodCount": 946,
    "secondTag": "양이 많아요",
    "secondCount": 281,
    "area": "양주 덕정"
  },
  {
    "placeId": "1119757354",
    "name": "도림186",
    "category": "중식당",
    "lat": 37.5096539,
    "lng": 126.897983,
    "score": 3.36,
    "foodCount": 861,
    "secondTag": "친절해요",
    "secondCount": 256,
    "area": "신도림"
  },
  {
    "placeId": "1191043875",
    "name": "서가네 족발잘하는 집",
    "category": "족발,보쌈",
    "lat": 37.6623791,
    "lng": 126.7668497,
    "score": 3.36,
    "foodCount": 205,
    "secondTag": "친절해요",
    "secondCount": 61,
    "area": "일산 라페스타"
  },
  {
    "placeId": "37394638",
    "name": "맘스터치 숙명여대점",
    "category": "햄버거",
    "lat": 37.5448899,
    "lng": 126.9660041,
    "score": 3.35,
    "foodCount": 540,
    "secondTag": "혼밥하기 좋아요",
    "secondCount": 161,
    "area": "효창공원"
  },
  {
    "placeId": "1872485948",
    "name": "도꼬정",
    "category": "한식",
    "lat": 37.6111165,
    "lng": 127.0224606,
    "score": 3.35,
    "foodCount": 455,
    "secondTag": "재료가 신선해요",
    "secondCount": 136,
    "area": "길음"
  },
  {
    "placeId": "1440517419",
    "name": "봉평산골메밀촌 상계수락점",
    "category": "막국수",
    "lat": 37.6746564,
    "lng": 127.0582362,
    "score": 3.35,
    "foodCount": 278,
    "secondTag": "친절해요",
    "secondCount": 83,
    "area": "상계"
  },
  {
    "placeId": "1661609784",
    "name": "칠기마라샹궈마라탕 중앙대점",
    "category": "중식당",
    "lat": 37.5073521,
    "lng": 126.9595873,
    "score": 3.35,
    "foodCount": 265,
    "secondTag": "재료가 신선해요",
    "secondCount": 79,
    "area": "흑석"
  },
  {
    "placeId": "16534198",
    "name": "더덕산채 인천연수점",
    "category": "한식",
    "lat": 37.4148883,
    "lng": 126.6793433,
    "score": 3.35,
    "foodCount": 114,
    "secondTag": "재료가 신선해요",
    "secondCount": 34,
    "area": "인천 연수"
  },
  {
    "placeId": "33880348",
    "name": "메밀랑",
    "category": "막국수",
    "lat": 37.5962517,
    "lng": 127.1305636,
    "score": 3.35,
    "foodCount": 1245,
    "secondTag": "재료가 신선해요",
    "secondCount": 372,
    "area": "구리"
  },
  {
    "placeId": "1536400026",
    "name": "그집보쌈 칼국수",
    "category": "족발,보쌈",
    "lat": 37.3937244,
    "lng": 126.9763294,
    "score": 3.34,
    "foodCount": 834,
    "secondTag": "매장이 넓어요",
    "secondCount": 250,
    "area": "안양 평촌"
  },
  {
    "placeId": "13019407",
    "name": "덕성원",
    "category": "중식당",
    "lat": 37.7631012,
    "lng": 126.7729441,
    "score": 3.34,
    "foodCount": 354,
    "secondTag": "재료가 신선해요",
    "secondCount": 106,
    "area": "파주 금촌"
  },
  {
    "placeId": "11781850",
    "name": "도미노피자 금호옥수점",
    "category": "피자",
    "lat": 37.5483278,
    "lng": 127.0259827,
    "score": 3.33,
    "foodCount": 213,
    "secondTag": "친절해요",
    "secondCount": 64,
    "area": "옥수"
  },
  {
    "placeId": "1725459127",
    "name": "편백집 롯데몰 김포공항점",
    "category": "육류,고기요리",
    "lat": 37.5627296,
    "lng": 126.8036783,
    "score": 3.33,
    "foodCount": 533,
    "secondTag": "친절해요",
    "secondCount": 160,
    "area": "김포공항"
  },
  {
    "placeId": "1736458438",
    "name": "동궁찜닭 강동명일점",
    "category": "찜닭",
    "lat": 37.5512527,
    "lng": 127.142967,
    "score": 3.32,
    "foodCount": 63,
    "secondTag": "친절해요",
    "secondCount": 19,
    "area": "명일"
  },
  {
    "placeId": "18714831",
    "name": "거구장",
    "category": "한식",
    "lat": 37.5080574,
    "lng": 126.9607549,
    "score": 3.32,
    "foodCount": 392,
    "secondTag": "친절해요",
    "secondCount": 118,
    "area": "흑석"
  },
  {
    "placeId": "1451574067",
    "name": "한사발포차 선릉점",
    "category": "요리주점",
    "lat": 37.5036333,
    "lng": 127.0543209,
    "score": 3.31,
    "foodCount": 1456,
    "secondTag": "친절해요",
    "secondCount": 440,
    "area": "선릉"
  },
  {
    "placeId": "1981818134",
    "name": "비비큐치킨 명동스타점",
    "category": "치킨,닭강정",
    "lat": 37.5634591,
    "lng": 126.9834763,
    "score": 3.31,
    "foodCount": 232,
    "secondTag": "친절해요",
    "secondCount": 70,
    "area": "명동"
  },
  {
    "placeId": "18076590",
    "name": "덕화원",
    "category": "중식당",
    "lat": 37.844072,
    "lng": 127.0625642,
    "score": 3.31,
    "foodCount": 1528,
    "secondTag": "재료가 신선해요",
    "secondCount": 462,
    "area": "양주 덕정"
  },
  {
    "placeId": "1182098870",
    "name": "KFC 미아사거리역",
    "category": "햄버거",
    "lat": 37.6131782,
    "lng": 127.0308085,
    "score": 3.3,
    "foodCount": 1769,
    "secondTag": "매장이 넓어요",
    "secondCount": 536,
    "area": "미아"
  },
  {
    "placeId": "11561604",
    "name": "널븐뜰",
    "category": "돼지고기구이",
    "lat": 37.6402788,
    "lng": 126.8394622,
    "score": 3.3,
    "foodCount": 839,
    "secondTag": "주차하기 편해요",
    "secondCount": 254,
    "area": "고양 화정"
  },
  {
    "placeId": "38969614",
    "name": "까폼",
    "category": "태국음식",
    "lat": 37.5248766,
    "lng": 127.0379906,
    "score": 3.29,
    "foodCount": 1871,
    "secondTag": "특별한 메뉴가 있어요",
    "secondCount": 569,
    "area": "압구정"
  },
  {
    "placeId": "11834422",
    "name": "광양불고기",
    "category": "육류,고기요리",
    "lat": 37.5050041,
    "lng": 127.1054733,
    "score": 3.29,
    "foodCount": 674,
    "secondTag": "친절해요",
    "secondCount": 205,
    "area": "석촌"
  },
  {
    "placeId": "18717848",
    "name": "일신기사식당",
    "category": "한식",
    "lat": 37.5466416,
    "lng": 126.9636125,
    "score": 3.29,
    "foodCount": 401,
    "secondTag": "양이 많아요",
    "secondCount": 122,
    "area": "효창공원"
  },
  {
    "placeId": "11836177",
    "name": "돕감자탕전문점",
    "category": "감자탕",
    "lat": 37.5414896,
    "lng": 127.0692665,
    "score": 3.29,
    "foodCount": 700,
    "secondTag": "양이 많아요",
    "secondCount": 213,
    "area": "건대"
  },
  {
    "placeId": "1328034475",
    "name": "연남토마 롯데몰 김포공항점",
    "category": "퓨전음식",
    "lat": 37.5639975,
    "lng": 126.8033897,
    "score": 3.29,
    "foodCount": 1649,
    "secondTag": "친절해요",
    "secondCount": 501,
    "area": "김포공항"
  },
  {
    "placeId": "19877546",
    "name": "공항칼국수",
    "category": "한식",
    "lat": 37.5609082,
    "lng": 126.8091224,
    "score": 3.29,
    "foodCount": 2560,
    "secondTag": "매장이 넓어요",
    "secondCount": 778,
    "area": "김포공항"
  },
  {
    "placeId": "869500760",
    "name": "청담추어정 야탑점",
    "category": "추어탕",
    "lat": 37.4072143,
    "lng": 127.1343913,
    "score": 3.29,
    "foodCount": 2843,
    "secondTag": "재료가 신선해요",
    "secondCount": 865,
    "area": "분당 야탑"
  },
  {
    "placeId": "11855302",
    "name": "감미옥",
    "category": "곰탕,설렁탕",
    "lat": 37.4088281,
    "lng": 127.1228405,
    "score": 3.29,
    "foodCount": 2141,
    "secondTag": "매장이 넓어요",
    "secondCount": 651,
    "area": "분당 야탑"
  },
  {
    "placeId": "1247122070",
    "name": "버거킹 일산백마학원가점",
    "category": "햄버거",
    "lat": 37.656508,
    "lng": 126.7891789,
    "score": 3.29,
    "foodCount": 458,
    "secondTag": "가성비가 좋아요",
    "secondCount": 139,
    "area": "일산 마두"
  },
  {
    "placeId": "20766863",
    "name": "강강술래 청담점",
    "category": "육류,고기요리",
    "lat": 37.525061,
    "lng": 127.051884,
    "score": 3.28,
    "foodCount": 829,
    "secondTag": "친절해요",
    "secondCount": 253,
    "area": "청담"
  },
  {
    "placeId": "37235781",
    "name": "피자오",
    "category": "피자",
    "lat": 37.5400353,
    "lng": 126.9865182,
    "score": 3.28,
    "foodCount": 403,
    "secondTag": "재료가 신선해요",
    "secondCount": 123,
    "area": "서울역"
  },
  {
    "placeId": "224357455",
    "name": "망향비빔국수 가산디지털단지점",
    "category": "국수",
    "lat": 37.4819087,
    "lng": 126.8813468,
    "score": 3.28,
    "foodCount": 682,
    "secondTag": "가성비가 좋아요",
    "secondCount": 208,
    "area": "가산디지털"
  },
  {
    "placeId": "18987726",
    "name": "통큰갈비",
    "category": "육류,고기요리",
    "lat": 37.8993171,
    "lng": 127.0607576,
    "score": 3.28,
    "foodCount": 285,
    "secondTag": "친절해요",
    "secondCount": 87,
    "area": "동두천"
  },
  {
    "placeId": "30975916",
    "name": "옛날농장 매헌점",
    "category": "육류,고기요리",
    "lat": 37.4707342,
    "lng": 127.0392618,
    "score": 3.27,
    "foodCount": 455,
    "secondTag": "친절해요",
    "secondCount": 139,
    "area": "양재"
  },
  {
    "placeId": "18124922",
    "name": "가마솥족발순대국",
    "category": "한식",
    "lat": 37.5514594,
    "lng": 126.9771488,
    "score": 3.27,
    "foodCount": 379,
    "secondTag": "양이 많아요",
    "secondCount": 116,
    "area": "서울역"
  },
  {
    "placeId": "1704757331",
    "name": "등촌샤브칼국수 옥수점",
    "category": "칼국수,만두",
    "lat": 37.5418268,
    "lng": 127.0177173,
    "score": 3.27,
    "foodCount": 356,
    "secondTag": "재료가 신선해요",
    "secondCount": 109,
    "area": "옥수"
  },
  {
    "placeId": "19582351",
    "name": "옥련밀 본점",
    "category": "막국수",
    "lat": 37.5232959,
    "lng": 126.8516921,
    "score": 3.27,
    "foodCount": 429,
    "secondTag": "양이 많아요",
    "secondCount": 131,
    "area": "신정"
  },
  {
    "placeId": "31234445",
    "name": "두부촌",
    "category": "한식",
    "lat": 37.5811923,
    "lng": 127.0268663,
    "score": 3.26,
    "foodCount": 535,
    "secondTag": "친절해요",
    "secondCount": 164,
    "area": "왕십리"
  },
  {
    "placeId": "11826623",
    "name": "미스터피자 상계점",
    "category": "피자",
    "lat": 37.6621651,
    "lng": 127.0659904,
    "score": 3.26,
    "foodCount": 297,
    "secondTag": "가성비가 좋아요",
    "secondCount": 91,
    "area": "상계"
  },
  {
    "placeId": "13547490",
    "name": "착한낙지 연신내점",
    "category": "낙지요리",
    "lat": 37.624,
    "lng": 126.928377,
    "score": 3.26,
    "foodCount": 417,
    "secondTag": "재료가 신선해요",
    "secondCount": 128,
    "area": "불광"
  },
  {
    "placeId": "276242059",
    "name": "아그라 롯데몰 김포공항점",
    "category": "인도음식",
    "lat": 37.5634293,
    "lng": 126.803602,
    "score": 3.26,
    "foodCount": 1035,
    "secondTag": "친절해요",
    "secondCount": 317,
    "area": "김포공항"
  },
  {
    "placeId": "1033976419",
    "name": "버거킹 평택로데오점",
    "category": "햄버거",
    "lat": 36.9913478,
    "lng": 127.0895613,
    "score": 3.26,
    "foodCount": 1592,
    "secondTag": "혼밥하기 좋아요",
    "secondCount": 489,
    "area": "평택역"
  },
  {
    "placeId": "11830966",
    "name": "소들녘 광명점",
    "category": "육류,고기요리",
    "lat": 37.4764034,
    "lng": 126.8659959,
    "score": 3.26,
    "foodCount": 2129,
    "secondTag": "친절해요",
    "secondCount": 654,
    "area": "광명"
  },
  {
    "placeId": "213465418",
    "name": "생어거스틴 김포공항점",
    "category": "아시아음식",
    "lat": 37.563525,
    "lng": 126.8035363,
    "score": 3.25,
    "foodCount": 868,
    "secondTag": "매장이 넓어요",
    "secondCount": 267,
    "area": "김포공항"
  },
  {
    "placeId": "573082633",
    "name": "거궁 부평점",
    "category": "한정식",
    "lat": 37.4904402,
    "lng": 126.7248666,
    "score": 3.25,
    "foodCount": 1561,
    "secondTag": "재료가 신선해요",
    "secondCount": 481,
    "area": "인천 부평"
  },
  {
    "placeId": "19587926",
    "name": "정통춘천닭갈비",
    "category": "닭갈비",
    "lat": 37.382945,
    "lng": 126.9624037,
    "score": 3.25,
    "foodCount": 1474,
    "secondTag": "양이 많아요",
    "secondCount": 454,
    "area": "안양 평촌"
  },
  {
    "placeId": "11802298",
    "name": "교촌치킨 신공덕점",
    "category": "치킨,닭강정",
    "lat": 37.5469861,
    "lng": 126.9579352,
    "score": 3.24,
    "foodCount": 94,
    "secondTag": "친절해요",
    "secondCount": 29,
    "area": "효창공원"
  },
  {
    "placeId": "16668407",
    "name": "이학갈비",
    "category": "육류,고기요리",
    "lat": 37.5375486,
    "lng": 126.7282554,
    "score": 3.24,
    "foodCount": 2466,
    "secondTag": "매장이 넓어요",
    "secondCount": 761,
    "area": "인천 계양"
  },
  {
    "placeId": "37659057",
    "name": "윤밀원",
    "category": "족발,보쌈",
    "lat": 37.3726321,
    "lng": 127.1149112,
    "score": 3.24,
    "foodCount": 2411,
    "secondTag": "특별한 메뉴가 있어요",
    "secondCount": 745,
    "area": "분당 정자"
  },
  {
    "placeId": "16515549",
    "name": "착한낙지 인천연수점",
    "category": "낙지요리",
    "lat": 37.4179186,
    "lng": 126.6771133,
    "score": 3.23,
    "foodCount": 417,
    "secondTag": "재료가 신선해요",
    "secondCount": 129,
    "area": "인천 연수"
  },
  {
    "placeId": "1816918596",
    "name": "롯데리아 모란역점",
    "category": "햄버거",
    "lat": 37.4328771,
    "lng": 127.1300094,
    "score": 3.23,
    "foodCount": 442,
    "secondTag": "재료가 신선해요",
    "secondCount": 137,
    "area": "성남 모란"
  },
  {
    "placeId": "19193419",
    "name": "금강해우촌",
    "category": "한식",
    "lat": 37.244042,
    "lng": 127.5881,
    "score": 3.23,
    "foodCount": 97,
    "secondTag": "친절해요",
    "secondCount": 30,
    "area": "여주"
  },
  {
    "placeId": "1890424195",
    "name": "베트남이랑",
    "category": "베트남음식",
    "lat": 37.4989957,
    "lng": 127.0261395,
    "score": 3.22,
    "foodCount": 1883,
    "secondTag": "현지 맛에 가까워요",
    "secondCount": 584,
    "area": "강남역"
  },
  {
    "placeId": "12759127",
    "name": "온누리진흙구이 백운호수점",
    "category": "오리요리",
    "lat": 37.3764448,
    "lng": 126.9990525,
    "score": 3.22,
    "foodCount": 492,
    "secondTag": "매장이 넓어요",
    "secondCount": 153,
    "area": "의왕"
  },
  {
    "placeId": "13570881",
    "name": "청실홍실 주안직영점",
    "category": "국수",
    "lat": 37.4597352,
    "lng": 126.6799248,
    "score": 3.21,
    "foodCount": 1691,
    "secondTag": "친절해요",
    "secondCount": 526,
    "area": "인천 주안"
  },
  {
    "placeId": "37186835",
    "name": "신사동갑오징어 송내점",
    "category": "오징어요리",
    "lat": 37.4871651,
    "lng": 126.7521272,
    "score": 3.21,
    "foodCount": 212,
    "secondTag": "친절해요",
    "secondCount": 66,
    "area": "부천 송내"
  },
  {
    "placeId": "37554375",
    "name": "강남면옥 인사점",
    "category": "냉면",
    "lat": 37.5724185,
    "lng": 126.9868077,
    "score": 3.2,
    "foodCount": 1157,
    "secondTag": "매장이 넓어요",
    "secondCount": 362,
    "area": "인사동"
  },
  {
    "placeId": "37310538",
    "name": "버거킹 인천논현점",
    "category": "햄버거",
    "lat": 37.397855,
    "lng": 126.7272716,
    "score": 3.2,
    "foodCount": 3399,
    "secondTag": "매장이 넓어요",
    "secondCount": 1063,
    "area": "인천 논현"
  },
  {
    "placeId": "2022328200",
    "name": "버거킹 산본역점",
    "category": "햄버거",
    "lat": 37.3584083,
    "lng": 126.9304002,
    "score": 3.2,
    "foodCount": 112,
    "secondTag": "가성비가 좋아요",
    "secondCount": 35,
    "area": "군포 산본"
  },
  {
    "placeId": "19878610",
    "name": "진미옥",
    "category": "곰탕,설렁탕",
    "lat": 37.9090263,
    "lng": 127.0528967,
    "score": 3.2,
    "foodCount": 1331,
    "secondTag": "친절해요",
    "secondCount": 416,
    "area": "동두천"
  },
  {
    "placeId": "1446978307",
    "name": "천미미 가락점",
    "category": "중식당",
    "lat": 37.4942125,
    "lng": 127.1201994,
    "score": 3.19,
    "foodCount": 746,
    "secondTag": "친절해요",
    "secondCount": 234,
    "area": "가락시장"
  },
  {
    "placeId": "1146853804",
    "name": "어수지락 연신내직영점",
    "category": "생선구이",
    "lat": 37.6128157,
    "lng": 126.9178102,
    "score": 3.19,
    "foodCount": 463,
    "secondTag": "친절해요",
    "secondCount": 145,
    "area": "연신내"
  },
  {
    "placeId": "20476776",
    "name": "오대산원조쭈꾸미볶음 연수직영점",
    "category": "주꾸미요리",
    "lat": 37.41485,
    "lng": 126.6729,
    "score": 3.19,
    "foodCount": 1000,
    "secondTag": "재료가 신선해요",
    "secondCount": 313,
    "area": "인천 연수"
  },
  {
    "placeId": "32504989",
    "name": "능이옥 백운호수본점",
    "category": "백숙,삼계탕",
    "lat": 37.357371,
    "lng": 126.9873769,
    "score": 3.19,
    "foodCount": 591,
    "secondTag": "친절해요",
    "secondCount": 185,
    "area": "의왕"
  },
  {
    "placeId": "38504803",
    "name": "만우갈매기살",
    "category": "육류,고기요리",
    "lat": 37.4797456,
    "lng": 126.7679615,
    "score": 3.19,
    "foodCount": 99,
    "secondTag": "친절해요",
    "secondCount": 31,
    "area": "부천 송내"
  },
  {
    "placeId": "1941592097",
    "name": "버거킹 경기양평점",
    "category": "햄버거",
    "lat": 37.4906689,
    "lng": 127.4917124,
    "score": 3.19,
    "foodCount": 1057,
    "secondTag": "친절해요",
    "secondCount": 331,
    "area": "양평"
  },
  {
    "placeId": "1895557267",
    "name": "한사발포차 역삼점",
    "category": "요리주점",
    "lat": 37.4943336,
    "lng": 127.0315227,
    "score": 3.18,
    "foodCount": 1395,
    "secondTag": "친절해요",
    "secondCount": 439,
    "area": "강남"
  },
  {
    "placeId": "18620213",
    "name": "골목순대국",
    "category": "순대,순댓국",
    "lat": 37.657789,
    "lng": 127.0375242,
    "score": 3.18,
    "foodCount": 534,
    "secondTag": "양이 많아요",
    "secondCount": 168,
    "area": "쌍문"
  },
  {
    "placeId": "18662530",
    "name": "중화원",
    "category": "중식당",
    "lat": 37.609958,
    "lng": 126.9317413,
    "score": 3.18,
    "foodCount": 858,
    "secondTag": "가성비가 좋아요",
    "secondCount": 270,
    "area": "불광"
  },
  {
    "placeId": "18135117",
    "name": "곰터먹촌",
    "category": "한식",
    "lat": 37.7942392,
    "lng": 127.2300807,
    "score": 3.18,
    "foodCount": 570,
    "secondTag": "특별한 메뉴가 있어요",
    "secondCount": 179,
    "area": "포천"
  },
  {
    "placeId": "1124122465",
    "name": "삭 수제튀김 전문점 이화본점",
    "category": "종합분식",
    "lat": 37.5580656,
    "lng": 126.9451103,
    "score": 3.17,
    "foodCount": 953,
    "secondTag": "가성비가 좋아요",
    "secondCount": 301,
    "area": "이대"
  },
  {
    "placeId": "19872987",
    "name": "평양집",
    "category": "곱창,막창,양",
    "lat": 37.5348745,
    "lng": 126.9739095,
    "score": 3.17,
    "foodCount": 656,
    "secondTag": "특별한 메뉴가 있어요",
    "secondCount": 207,
    "area": "삼각지"
  },
  {
    "placeId": "11699378",
    "name": "명동충무김밥",
    "category": "분식",
    "lat": 37.5631379,
    "lng": 126.9851971,
    "score": 3.17,
    "foodCount": 4289,
    "secondTag": "혼밥하기 좋아요",
    "secondCount": 1355,
    "area": "명동"
  },
  {
    "placeId": "11782294",
    "name": "버거킹 쌍문점",
    "category": "햄버거",
    "lat": 37.6586497,
    "lng": 127.0352601,
    "score": 3.17,
    "foodCount": 4774,
    "secondTag": "매장이 넓어요",
    "secondCount": 1508,
    "area": "쌍문"
  },
  {
    "placeId": "1353904853",
    "name": "왕김말이랑떡볶이",
    "category": "종합분식",
    "lat": 37.4798136,
    "lng": 126.8839012,
    "score": 3.17,
    "foodCount": 38,
    "secondTag": "특별한 메뉴가 있어요",
    "secondCount": 12,
    "area": "가산디지털"
  },
  {
    "placeId": "1491187346",
    "name": "문정능이오리백숙",
    "category": "백숙,삼계탕",
    "lat": 37.4842253,
    "lng": 127.1304059,
    "score": 3.16,
    "foodCount": 142,
    "secondTag": "친절해요",
    "secondCount": 45,
    "area": "문정"
  },
  {
    "placeId": "18119095",
    "name": "영화장",
    "category": "중식당",
    "lat": 37.5965687,
    "lng": 127.0609498,
    "score": 3.16,
    "foodCount": 905,
    "secondTag": "재료가 신선해요",
    "secondCount": 286,
    "area": "중화"
  },
  {
    "placeId": "1491760977",
    "name": "보승회관 당산역점",
    "category": "국밥",
    "lat": 37.5353841,
    "lng": 126.8992575,
    "score": 3.16,
    "foodCount": 829,
    "secondTag": "친절해요",
    "secondCount": 262,
    "area": "당산"
  },
  {
    "placeId": "1256654277",
    "name": "을밀대 무교점",
    "category": "냉면",
    "lat": 37.5670314,
    "lng": 126.9802867,
    "score": 3.15,
    "foodCount": 516,
    "secondTag": "매장이 넓어요",
    "secondCount": 164,
    "area": "종로"
  },
  {
    "placeId": "1149831078",
    "name": "치비치비",
    "category": "스테이크,립",
    "lat": 37.5920428,
    "lng": 127.0527666,
    "score": 3.15,
    "foodCount": 164,
    "secondTag": "특별한 메뉴가 있어요",
    "secondCount": 52,
    "area": "회기"
  },
  {
    "placeId": "33875906",
    "name": "동대문엽기떡볶이 면목점",
    "category": "분식",
    "lat": 37.5798937,
    "lng": 127.0929473,
    "score": 3.15,
    "foodCount": 258,
    "secondTag": "양이 많아요",
    "secondCount": 82,
    "area": "면목"
  },
  {
    "placeId": "38275793",
    "name": "시골순대 상계점",
    "category": "순대,순댓국",
    "lat": 37.6616135,
    "lng": 127.0747724,
    "score": 3.15,
    "foodCount": 615,
    "secondTag": "양이 많아요",
    "secondCount": 195,
    "area": "상계"
  },
  {
    "placeId": "11811538",
    "name": "향나무집",
    "category": "백숙,삼계탕",
    "lat": 37.4828904,
    "lng": 126.6952428,
    "score": 3.15,
    "foodCount": 293,
    "secondTag": "양이 많아요",
    "secondCount": 93,
    "area": "인천 부평"
  },
  {
    "placeId": "11711983",
    "name": "이문설렁탕",
    "category": "곰탕,설렁탕",
    "lat": 37.5727663,
    "lng": 126.9839047,
    "score": 3.14,
    "foodCount": 1668,
    "secondTag": "매장이 넓어요",
    "secondCount": 531,
    "area": "인사동"
  },
  {
    "placeId": "1351258765",
    "name": "봉평메밀국수 길음역점",
    "category": "막국수",
    "lat": 37.6038013,
    "lng": 127.0234728,
    "score": 3.14,
    "foodCount": 66,
    "secondTag": "특별한 메뉴가 있어요",
    "secondCount": 21,
    "area": "길음"
  },
  {
    "placeId": "1117006351",
    "name": "맘스터치 상계보람점",
    "category": "햄버거",
    "lat": 37.6639199,
    "lng": 127.06627,
    "score": 3.14,
    "foodCount": 44,
    "secondTag": "가성비가 좋아요",
    "secondCount": 14,
    "area": "상계"
  },
  {
    "placeId": "36883199",
    "name": "삼숙이갈비 가산디지털본점",
    "category": "육류,고기요리",
    "lat": 37.4819844,
    "lng": 126.8830285,
    "score": 3.14,
    "foodCount": 292,
    "secondTag": "친절해요",
    "secondCount": 93,
    "area": "가산디지털"
  },
  {
    "placeId": "940338661",
    "name": "쉐이크쉑 분당점",
    "category": "햄버거",
    "lat": 37.3847584,
    "lng": 127.1228097,
    "score": 3.14,
    "foodCount": 4384,
    "secondTag": "재료가 신선해요",
    "secondCount": 1396,
    "area": "분당 서현"
  },
  {
    "placeId": "35569435",
    "name": "해물로",
    "category": "해물,생선요리",
    "lat": 37.606657,
    "lng": 126.7114829,
    "score": 3.14,
    "foodCount": 1020,
    "secondTag": "재료가 신선해요",
    "secondCount": 325,
    "area": "김포 풍무"
  },
  {
    "placeId": "13568274",
    "name": "응암리막국수",
    "category": "막국수",
    "lat": 37.2337259,
    "lng": 127.5224031,
    "score": 3.14,
    "foodCount": 578,
    "secondTag": "주차하기 편해요",
    "secondCount": 184,
    "area": "이천"
  },
  {
    "placeId": "1068065981",
    "name": "평촌골목냉면",
    "category": "냉면",
    "lat": 37.3879437,
    "lng": 126.9732574,
    "score": 3.13,
    "foodCount": 410,
    "secondTag": "가성비가 좋아요",
    "secondCount": 131,
    "area": "안양 평촌"
  },
  {
    "placeId": "11808312",
    "name": "KFC화정점",
    "category": "햄버거",
    "lat": 37.6334516,
    "lng": 126.8314672,
    "score": 3.13,
    "foodCount": 1712,
    "secondTag": "가성비가 좋아요",
    "secondCount": 547,
    "area": "고양 화정"
  },
  {
    "placeId": "11477706",
    "name": "명동함흥면옥 본점",
    "category": "냉면",
    "lat": 37.5627749,
    "lng": 126.9856749,
    "score": 3.12,
    "foodCount": 874,
    "secondTag": "친절해요",
    "secondCount": 280,
    "area": "명동"
  },
  {
    "placeId": "1638312330",
    "name": "어흥식당 고대점",
    "category": "스테이크,립",
    "lat": 37.5881286,
    "lng": 127.0298655,
    "score": 3.12,
    "foodCount": 462,
    "secondTag": "친절해요",
    "secondCount": 148,
    "area": "안암"
  },
  {
    "placeId": "33358980",
    "name": "롯데리아 양주덕정점",
    "category": "햄버거",
    "lat": 37.8366102,
    "lng": 127.0687333,
    "score": 3.12,
    "foodCount": 896,
    "secondTag": "가성비가 좋아요",
    "secondCount": 287,
    "area": "양주 덕정"
  },
  {
    "placeId": "12977419",
    "name": "본죽 명일역점",
    "category": "죽",
    "lat": 37.5506942,
    "lng": 127.1445047,
    "score": 3.11,
    "foodCount": 395,
    "secondTag": "재료가 신선해요",
    "secondCount": 127,
    "area": "명일"
  },
  {
    "placeId": "11678838",
    "name": "필동면옥",
    "category": "냉면",
    "lat": 37.5603727,
    "lng": 126.9969235,
    "score": 3.11,
    "foodCount": 2849,
    "secondTag": "특별한 메뉴가 있어요",
    "secondCount": 915,
    "area": "충무로"
  },
  {
    "placeId": "1221343803",
    "name": "토끼정 롯데몰 김포공항점",
    "category": "일식당",
    "lat": 37.5621232,
    "lng": 126.8013738,
    "score": 3.11,
    "foodCount": 1085,
    "secondTag": "특별한 메뉴가 있어요",
    "secondCount": 349,
    "area": "김포공항"
  },
  {
    "placeId": "16633673",
    "name": "전현수의황제누룽지탕 인천본점",
    "category": "한식",
    "lat": 37.5346645,
    "lng": 126.7372334,
    "score": 3.11,
    "foodCount": 2156,
    "secondTag": "매장이 넓어요",
    "secondCount": 694,
    "area": "인천 계양"
  },
  {
    "placeId": "259521312",
    "name": "돗가비 불쭈꾸미 본점",
    "category": "주꾸미요리",
    "lat": 37.5158121,
    "lng": 127.602997,
    "score": 3.11,
    "foodCount": 1837,
    "secondTag": "재료가 신선해요",
    "secondCount": 590,
    "area": "양평"
  },
  {
    "placeId": "1099524893",
    "name": "또보겠지떡볶이집 강남헬로몽키점",
    "category": "분식",
    "lat": 37.5030822,
    "lng": 127.0272802,
    "score": 3.1,
    "foodCount": 2210,
    "secondTag": "친절해요",
    "secondCount": 712,
    "area": "강남역"
  },
  {
    "placeId": "1447295125",
    "name": "레몬중화요리",
    "category": "중식당",
    "lat": 37.5545202,
    "lng": 126.9687853,
    "score": 3.1,
    "foodCount": 975,
    "secondTag": "재료가 신선해요",
    "secondCount": 315,
    "area": "서울역"
  },
  {
    "placeId": "31564789",
    "name": "중화호반닭갈비막국수 본점",
    "category": "닭갈비",
    "lat": 37.601417,
    "lng": 127.0763681,
    "score": 3.1,
    "foodCount": 468,
    "secondTag": "양이 많아요",
    "secondCount": 151,
    "area": "중화"
  },
  {
    "placeId": "36339010",
    "name": "용씨네 누룽지통닭구이",
    "category": "닭요리",
    "lat": 37.5887674,
    "lng": 126.9435851,
    "score": 3.09,
    "foodCount": 688,
    "secondTag": "특별한 메뉴가 있어요",
    "secondCount": 223,
    "area": "홍제"
  },
  {
    "placeId": "1444125727",
    "name": "나리식당",
    "category": "돼지고기구이",
    "lat": 37.5244099,
    "lng": 127.0417214,
    "score": 3.08,
    "foodCount": 320,
    "secondTag": "매장이 넓어요",
    "secondCount": 104,
    "area": "청담"
  },
  {
    "placeId": "1112145179",
    "name": "오복닭한마리 미아리본점",
    "category": "닭요리",
    "lat": 37.6126858,
    "lng": 127.0307018,
    "score": 3.08,
    "foodCount": 493,
    "secondTag": "친절해요",
    "secondCount": 160,
    "area": "미아"
  },
  {
    "placeId": "33875198",
    "name": "두꺼비집",
    "category": "오징어요리",
    "lat": 37.6181357,
    "lng": 126.9209815,
    "score": 3.08,
    "foodCount": 1951,
    "secondTag": "재료가 신선해요",
    "secondCount": 634,
    "area": "연신내"
  },
  {
    "placeId": "11802744",
    "name": "교촌치킨 흑석1호점",
    "category": "치킨,닭강정",
    "lat": 37.5087132,
    "lng": 126.9616814,
    "score": 3.08,
    "foodCount": 234,
    "secondTag": "친절해요",
    "secondCount": 76,
    "area": "흑석"
  },
  {
    "placeId": "34864541",
    "name": "우당한대앞역점",
    "category": "육류,고기요리",
    "lat": 37.3076052,
    "lng": 126.8522353,
    "score": 3.08,
    "foodCount": 222,
    "secondTag": "매장이 넓어요",
    "secondCount": 72,
    "area": "안산 한대앞"
  },
  {
    "placeId": "18076403",
    "name": "앗싸곱창 덕정점",
    "category": "곱창,막창,양",
    "lat": 37.8345462,
    "lng": 127.0656884,
    "score": 3.08,
    "foodCount": 317,
    "secondTag": "양이 많아요",
    "secondCount": 103,
    "area": "양주 덕정"
  },
  {
    "placeId": "1366361653",
    "name": "천서리짬뽕상회",
    "category": "중식당",
    "lat": 37.4028893,
    "lng": 127.5455388,
    "score": 3.08,
    "foodCount": 277,
    "secondTag": "친절해요",
    "secondCount": 90,
    "area": "여주"
  },
  {
    "placeId": "1957101205",
    "name": "우동 키누",
    "category": "우동,소바",
    "lat": 37.4903343,
    "lng": 126.9930025,
    "score": 3.07,
    "foodCount": 1099,
    "secondTag": "특별한 메뉴가 있어요",
    "secondCount": 358,
    "area": "서초"
  },
  {
    "placeId": "87797917",
    "name": "조마루감자탕 쌍문점",
    "category": "감자탕",
    "lat": 37.6559158,
    "lng": 127.0387139,
    "score": 3.07,
    "foodCount": 1036,
    "secondTag": "매장이 넓어요",
    "secondCount": 338,
    "area": "쌍문"
  },
  {
    "placeId": "13574886",
    "name": "도일처",
    "category": "중식당",
    "lat": 37.5619462,
    "lng": 126.8077434,
    "score": 3.07,
    "foodCount": 638,
    "secondTag": "특별한 메뉴가 있어요",
    "secondCount": 208,
    "area": "김포공항"
  },
  {
    "placeId": "11708579",
    "name": "인사동 항아리수제비",
    "category": "한식",
    "lat": 37.5741563,
    "lng": 126.9860418,
    "score": 3.06,
    "foodCount": 1320,
    "secondTag": "친절해요",
    "secondCount": 432,
    "area": "인사동"
  },
  {
    "placeId": "18777973",
    "name": "마장황소곱창",
    "category": "곱창,막창,양",
    "lat": 37.5653051,
    "lng": 127.0366015,
    "score": 3.06,
    "foodCount": 211,
    "secondTag": "친절해요",
    "secondCount": 69,
    "area": "왕십리"
  },
  {
    "placeId": "1052755604",
    "name": "KFC 수유역",
    "category": "햄버거",
    "lat": 37.6366509,
    "lng": 127.0237499,
    "score": 3.05,
    "foodCount": 802,
    "secondTag": "재료가 신선해요",
    "secondCount": 263,
    "area": "수유"
  },
  {
    "placeId": "1931534453",
    "name": "망향비빔국수 창동점",
    "category": "국수",
    "lat": 37.652758,
    "lng": 127.0374824,
    "score": 3.05,
    "foodCount": 940,
    "secondTag": "매장이 넓어요",
    "secondCount": 308,
    "area": "창동"
  },
  {
    "placeId": "21273845",
    "name": "봉추찜닭 가산역점",
    "category": "찜닭",
    "lat": 37.481928,
    "lng": 126.8814617,
    "score": 3.05,
    "foodCount": 253,
    "secondTag": "친절해요",
    "secondCount": 83,
    "area": "가산디지털"
  },
  {
    "placeId": "38654059",
    "name": "장원막국수",
    "category": "막국수",
    "lat": 37.3856526,
    "lng": 127.1209186,
    "score": 3.05,
    "foodCount": 539,
    "secondTag": "재료가 신선해요",
    "secondCount": 177,
    "area": "분당 서현"
  },
  {
    "placeId": "1558009294",
    "name": "군계폐계닭",
    "category": "닭요리",
    "lat": 36.9933645,
    "lng": 127.0916835,
    "score": 3.05,
    "foodCount": 284,
    "secondTag": "특별한 메뉴가 있어요",
    "secondCount": 93,
    "area": "평택역"
  },
  {
    "placeId": "12995935",
    "name": "청기와한정식",
    "category": "한정식",
    "lat": 37.276583,
    "lng": 127.636425,
    "score": 3.05,
    "foodCount": 235,
    "secondTag": "재료가 신선해요",
    "secondCount": 77,
    "area": "여주"
  },
  {
    "placeId": "622054703",
    "name": "본도시락 명일동점",
    "category": "도시락,컵밥",
    "lat": 37.5522107,
    "lng": 127.1432743,
    "score": 3.04,
    "foodCount": 70,
    "secondTag": "재료가 신선해요",
    "secondCount": 23,
    "area": "명일"
  },
  {
    "placeId": "738583313",
    "name": "육전면사무소 합정역점",
    "category": "한식",
    "lat": 37.5499184,
    "lng": 126.912511,
    "score": 3.04,
    "foodCount": 386,
    "secondTag": "친절해요",
    "secondCount": 127,
    "area": "합정"
  },
  {
    "placeId": "38275962",
    "name": "오근내2닭갈비",
    "category": "닭요리",
    "lat": 37.52513,
    "lng": 126.962841,
    "score": 3.04,
    "foodCount": 1515,
    "secondTag": "매장이 넓어요",
    "secondCount": 499,
    "area": "용산역"
  },
  {
    "placeId": "11619310",
    "name": "전주집",
    "category": "생선구이",
    "lat": 37.57029,
    "lng": 127.006361,
    "score": 3.04,
    "foodCount": 1190,
    "secondTag": "양이 많아요",
    "secondCount": 391,
    "area": "동대문"
  },
  {
    "placeId": "19419712",
    "name": "봉추찜닭 경희대점",
    "category": "찜닭",
    "lat": 37.5923609,
    "lng": 127.0528843,
    "score": 3.04,
    "foodCount": 432,
    "secondTag": "양이 많아요",
    "secondCount": 142,
    "area": "청량리"
  },
  {
    "placeId": "1237870042",
    "name": "버거킹 양주덕정FS점",
    "category": "햄버거",
    "lat": 37.8392673,
    "lng": 127.062369,
    "score": 3.04,
    "foodCount": 1521,
    "secondTag": "매장이 넓어요",
    "secondCount": 500,
    "area": "양주 덕정"
  },
  {
    "placeId": "1865094857",
    "name": "고씨네고추장찌개",
    "category": "한식",
    "lat": 37.5635255,
    "lng": 126.9903747,
    "score": 3.03,
    "foodCount": 828,
    "secondTag": "특별한 메뉴가 있어요",
    "secondCount": 273,
    "area": "을지로"
  },
  {
    "placeId": "208847623",
    "name": "이가네양꼬치 서현점",
    "category": "양꼬치",
    "lat": 37.3867296,
    "lng": 127.1219726,
    "score": 3.03,
    "foodCount": 336,
    "secondTag": "고기 질이 좋아요",
    "secondCount": 111,
    "area": "분당 서현"
  },
  {
    "placeId": "18911445",
    "name": "함경면옥 본점",
    "category": "냉면",
    "lat": 37.5235769,
    "lng": 127.1300329,
    "score": 3.02,
    "foodCount": 1646,
    "secondTag": "매장이 넓어요",
    "secondCount": 545,
    "area": "강동"
  },
  {
    "placeId": "19790336",
    "name": "연지민물매운탕칼국수",
    "category": "한식",
    "lat": 37.5344591,
    "lng": 127.0762601,
    "score": 3.02,
    "foodCount": 350,
    "secondTag": "친절해요",
    "secondCount": 116,
    "area": "건대"
  },
  {
    "placeId": "1032306077",
    "name": "이화만두",
    "category": "만두",
    "lat": 37.5547266,
    "lng": 127.0784423,
    "score": 3.02,
    "foodCount": 1421,
    "secondTag": "양이 많아요",
    "secondCount": 471,
    "area": "군자"
  },
  {
    "placeId": "17999114",
    "name": "통나무집",
    "category": "육류,고기요리",
    "lat": 37.6470996,
    "lng": 127.0328738,
    "score": 3.02,
    "foodCount": 266,
    "secondTag": "친절해요",
    "secondCount": 88,
    "area": "쌍문"
  },
  {
    "placeId": "13157869",
    "name": "삼대냉면 명일점",
    "category": "냉면",
    "lat": 37.5503439,
    "lng": 127.146659,
    "score": 3.01,
    "foodCount": 256,
    "secondTag": "친절해요",
    "secondCount": 85,
    "area": "명일"
  },
  {
    "placeId": "1284708491",
    "name": "버거킹 경희대점",
    "category": "햄버거",
    "lat": 37.5918311,
    "lng": 127.0521882,
    "score": 3.01,
    "foodCount": 1793,
    "secondTag": "혼밥하기 좋아요",
    "secondCount": 595,
    "area": "회기"
  },
  {
    "placeId": "1506670134",
    "name": "버거킹 인천주안점",
    "category": "햄버거",
    "lat": 37.46391,
    "lng": 126.6791012,
    "score": 3.01,
    "foodCount": 2998,
    "secondTag": "혼밥하기 좋아요",
    "secondCount": 996,
    "area": "인천 주안"
  },
  {
    "placeId": "19046720",
    "name": "황토장어본점",
    "category": "장어,먹장어요리",
    "lat": 37.3777189,
    "lng": 126.9987878,
    "score": 3.01,
    "foodCount": 904,
    "secondTag": "매장이 넓어요",
    "secondCount": 300,
    "area": "의왕"
  },
  {
    "placeId": "35516131",
    "name": "인하찹쌀순대",
    "category": "순대,순댓국",
    "lat": 37.4810548,
    "lng": 126.7730677,
    "score": 3.01,
    "foodCount": 1432,
    "secondTag": "양이 많아요",
    "secondCount": 475,
    "area": "부천 송내"
  },
  {
    "placeId": "1688787071",
    "name": "보승회관 이태원역점",
    "category": "국밥",
    "lat": 37.5339917,
    "lng": 126.9930263,
    "score": 3.0,
    "foodCount": 78,
    "secondTag": "가성비가 좋아요",
    "secondCount": 26,
    "area": "이태원"
  },
  {
    "placeId": "20825480",
    "name": "육쌈냉면 미아점",
    "category": "냉면",
    "lat": 37.612439,
    "lng": 127.0297813,
    "score": 3.0,
    "foodCount": 722,
    "secondTag": "혼밥하기 좋아요",
    "secondCount": 241,
    "area": "미아"
  },
  {
    "placeId": "1067485436",
    "name": "오장동흥남집 롯데몰김포공항점",
    "category": "냉면",
    "lat": 37.5636037,
    "lng": 126.803563,
    "score": 3.0,
    "foodCount": 540,
    "secondTag": "친절해요",
    "secondCount": 180,
    "area": "김포공항"
  },
  {
    "placeId": "2040373376",
    "name": "순삭곱창 덕정점",
    "category": "곱창,막창,양",
    "lat": 37.8367258,
    "lng": 127.0680249,
    "score": 3.0,
    "foodCount": 18,
    "secondTag": "양이 많아요",
    "secondCount": 6,
    "area": "양주 덕정"
  },
  {
    "placeId": "1662178009",
    "name": "엉클조 소시지 삼각지점",
    "category": "맥주,호프",
    "lat": 37.5336139,
    "lng": 126.9738346,
    "score": 2.99,
    "foodCount": 2636,
    "secondTag": "기본 안주가 좋아요",
    "secondCount": 881,
    "area": "삼각지"
  },
  {
    "placeId": "19769534",
    "name": "하누소 창동본점",
    "category": "소고기구이",
    "lat": 37.6515124,
    "lng": 127.0448206,
    "score": 2.99,
    "foodCount": 3204,
    "secondTag": "매장이 넓어요",
    "secondCount": 1070,
    "area": "창동"
  },
  {
    "placeId": "1020609781",
    "name": "버거킹 불광점",
    "category": "햄버거",
    "lat": 37.612487,
    "lng": 126.9284954,
    "score": 2.99,
    "foodCount": 3534,
    "secondTag": "가성비가 좋아요",
    "secondCount": 1183,
    "area": "불광"
  },
  {
    "placeId": "1063986090",
    "name": "쇼쿠지 평택역점",
    "category": "일식당",
    "lat": 36.9929371,
    "lng": 127.0902081,
    "score": 2.99,
    "foodCount": 290,
    "secondTag": "친절해요",
    "secondCount": 97,
    "area": "평택역"
  },
  {
    "placeId": "1903333123",
    "name": "버거킹 평촌학원가점",
    "category": "햄버거",
    "lat": 37.3824196,
    "lng": 126.961118,
    "score": 2.99,
    "foodCount": 2908,
    "secondTag": "가성비가 좋아요",
    "secondCount": 971,
    "area": "안양 평촌"
  },
  {
    "placeId": "11828090",
    "name": "홍가네 영양센타",
    "category": "백숙,삼계탕",
    "lat": 37.3980216,
    "lng": 126.9238243,
    "score": 2.99,
    "foodCount": 557,
    "secondTag": "양이 많아요",
    "secondCount": 186,
    "area": "안양역"
  },
  {
    "placeId": "19866778",
    "name": "형제갈비",
    "category": "육류,고기요리",
    "lat": 37.5578619,
    "lng": 126.937343,
    "score": 2.98,
    "foodCount": 1011,
    "secondTag": "친절해요",
    "secondCount": 339,
    "area": "신촌"
  },
  {
    "placeId": "1473360805",
    "name": "엄용백 돼지국밥",
    "category": "국밥",
    "lat": 37.5718777,
    "lng": 126.9858222,
    "score": 2.98,
    "foodCount": 949,
    "secondTag": "특별한 메뉴가 있어요",
    "secondCount": 318,
    "area": "인사동"
  },
  {
    "placeId": "37227038",
    "name": "난이네곱창",
    "category": "곱창,막창,양",
    "lat": 37.6023312,
    "lng": 127.0213272,
    "score": 2.98,
    "foodCount": 847,
    "secondTag": "양이 많아요",
    "secondCount": 284,
    "area": "길음"
  },
  {
    "placeId": "20601612",
    "name": "이조손칼국수",
    "category": "칼국수,만두",
    "lat": 37.5018839,
    "lng": 126.8877446,
    "score": 2.98,
    "foodCount": 414,
    "secondTag": "재료가 신선해요",
    "secondCount": 139,
    "area": "구로"
  },
  {
    "placeId": "11567981",
    "name": "가보정",
    "category": "육류,고기요리",
    "lat": 37.2742604,
    "lng": 127.0286819,
    "score": 2.98,
    "foodCount": 3240,
    "secondTag": "친절해요",
    "secondCount": 1088,
    "area": "수원 인계동"
  },
  {
    "placeId": "11678822",
    "name": "혜화칼국수",
    "category": "국수",
    "lat": 37.5865774,
    "lng": 127.001542,
    "score": 2.97,
    "foodCount": 1544,
    "secondTag": "특별한 메뉴가 있어요",
    "secondCount": 520,
    "area": "대학로"
  },
  {
    "placeId": "11807465",
    "name": "맥도날드 연수 GS DT점",
    "category": "햄버거",
    "lat": 37.4148937,
    "lng": 126.6769849,
    "score": 2.97,
    "foodCount": 2714,
    "secondTag": "가성비가 좋아요",
    "secondCount": 914,
    "area": "인천 연수"
  },
  {
    "placeId": "1672186393",
    "name": "소플러스 논현점",
    "category": "소고기구이",
    "lat": 37.3999481,
    "lng": 126.7207028,
    "score": 2.97,
    "foodCount": 996,
    "secondTag": "가성비가 좋아요",
    "secondCount": 335,
    "area": "인천 논현"
  },
  {
    "placeId": "11667161",
    "name": "묘향만두",
    "category": "만두",
    "lat": 37.563997,
    "lng": 127.1147751,
    "score": 2.97,
    "foodCount": 1425,
    "secondTag": "매장이 넓어요",
    "secondCount": 479,
    "area": "구리"
  },
  {
    "placeId": "1022922462",
    "name": "송쉐프 석촌점",
    "category": "중식당",
    "lat": 37.5049135,
    "lng": 127.1056667,
    "score": 2.96,
    "foodCount": 953,
    "secondTag": "친절해요",
    "secondCount": 322,
    "area": "석촌"
  },
  {
    "placeId": "494627193",
    "name": "도마 인사동점",
    "category": "한식",
    "lat": 37.5738125,
    "lng": 126.9858347,
    "score": 2.96,
    "foodCount": 2080,
    "secondTag": "친절해요",
    "secondCount": 702,
    "area": "종로"
  },
  {
    "placeId": "1547953921",
    "name": "포옹남 당산점",
    "category": "베트남음식",
    "lat": 37.5350212,
    "lng": 126.9039089,
    "score": 2.96,
    "foodCount": 615,
    "secondTag": "인테리어가 멋져요",
    "secondCount": 208,
    "area": "당산"
  },
  {
    "placeId": "1294233117",
    "name": "해민면옥",
    "category": "한식",
    "lat": 37.4945935,
    "lng": 126.723203,
    "score": 2.96,
    "foodCount": 796,
    "secondTag": "재료가 신선해요",
    "secondCount": 269,
    "area": "인천 부평"
  },
  {
    "placeId": "38676834",
    "name": "백년교동짬뽕 내촌점",
    "category": "중식당",
    "lat": 37.7798404,
    "lng": 127.2268906,
    "score": 2.96,
    "foodCount": 290,
    "secondTag": "주차하기 편해요",
    "secondCount": 98,
    "area": "포천"
  },
  {
    "placeId": "1806174881",
    "name": "송도갈비 구리워커힐점",
    "category": "육류,고기요리",
    "lat": 37.5625258,
    "lng": 127.1145096,
    "score": 2.96,
    "foodCount": 702,
    "secondTag": "매장이 넓어요",
    "secondCount": 237,
    "area": "구리"
  },
  {
    "placeId": "1489217680",
    "name": "또보겠지떡볶이 해피토스점",
    "category": "분식",
    "lat": 37.5521006,
    "lng": 126.9211364,
    "score": 2.95,
    "foodCount": 971,
    "secondTag": "친절해요",
    "secondCount": 329,
    "area": "홍대"
  },
  {
    "placeId": "13440922",
    "name": "사계진미 야탑본점",
    "category": "국수",
    "lat": 37.4171098,
    "lng": 127.1325276,
    "score": 2.95,
    "foodCount": 937,
    "secondTag": "재료가 신선해요",
    "secondCount": 318,
    "area": "분당 야탑"
  },
  {
    "placeId": "1163694234",
    "name": "오븐마루치킨 광교호수점",
    "category": "치킨,닭강정",
    "lat": 37.2847328,
    "lng": 127.0639043,
    "score": 2.95,
    "foodCount": 377,
    "secondTag": "매장이 넓어요",
    "secondCount": 128,
    "area": "수원 광교"
  },
  {
    "placeId": "1014884338",
    "name": "등촌샤브칼국수 중앙점",
    "category": "칼국수,만두",
    "lat": 37.3187678,
    "lng": 126.8375748,
    "score": 2.95,
    "foodCount": 357,
    "secondTag": "재료가 신선해요",
    "secondCount": 121,
    "area": "안산 중앙"
  },
  {
    "placeId": "1674551374",
    "name": "세광양대창 일산라페스타점",
    "category": "곱창,막창,양",
    "lat": 37.662798,
    "lng": 126.7666384,
    "score": 2.95,
    "foodCount": 319,
    "secondTag": "친절해요",
    "secondCount": 108,
    "area": "일산 라페스타"
  },
  {
    "placeId": "1858567170",
    "name": "양각도 일산본점",
    "category": "이북음식",
    "lat": 37.6591992,
    "lng": 126.7671141,
    "score": 2.95,
    "foodCount": 976,
    "secondTag": "특별한 메뉴가 있어요",
    "secondCount": 331,
    "area": "일산 정발산"
  },
  {
    "placeId": "19877543",
    "name": "군원 일산마두본점",
    "category": "중식당",
    "lat": 37.6507922,
    "lng": 126.7788736,
    "score": 2.95,
    "foodCount": 650,
    "secondTag": "친절해요",
    "secondCount": 220,
    "area": "일산 마두"
  },
  {
    "placeId": "36920349",
    "name": "정가네화덕구이족발 장기본점",
    "category": "족발,보쌈",
    "lat": 37.6440753,
    "lng": 126.6711742,
    "score": 2.95,
    "foodCount": 543,
    "secondTag": "친절해요",
    "secondCount": 184,
    "area": "김포 장기"
  },
  {
    "placeId": "1337502250",
    "name": "맛자랑",
    "category": "한식",
    "lat": 37.5067892,
    "lng": 127.0482388,
    "score": 2.94,
    "foodCount": 896,
    "secondTag": "매장이 넓어요",
    "secondCount": 305,
    "area": "선릉"
  },
  {
    "placeId": "1820361832",
    "name": "혼신꼬치 본점",
    "category": "일식튀김,꼬치",
    "lat": 37.5555548,
    "lng": 126.930979,
    "score": 2.94,
    "foodCount": 1386,
    "secondTag": "재료가 신선해요",
    "secondCount": 471,
    "area": "신촌"
  },
  {
    "placeId": "11807305",
    "name": "맥도날드 동인천점",
    "category": "햄버거",
    "lat": 37.4746468,
    "lng": 126.6305007,
    "score": 2.94,
    "foodCount": 2041,
    "secondTag": "가성비가 좋아요",
    "secondCount": 694,
    "area": "인천 동인천"
  },
  {
    "placeId": "18796393",
    "name": "한강껍데기",
    "category": "돼지고기구이",
    "lat": 37.5566749,
    "lng": 126.9022624,
    "score": 2.93,
    "foodCount": 551,
    "secondTag": "친절해요",
    "secondCount": 188,
    "area": "망원"
  },
  {
    "placeId": "1835052467",
    "name": "남산도담",
    "category": "요리주점",
    "lat": 37.562849,
    "lng": 126.9925007,
    "score": 2.93,
    "foodCount": 1546,
    "secondTag": "친절해요",
    "secondCount": 527,
    "area": "충무로"
  },
  {
    "placeId": "1835969700",
    "name": "자담치킨 서울면목1점",
    "category": "치킨,닭강정",
    "lat": 37.5790314,
    "lng": 127.0914239,
    "score": 2.93,
    "foodCount": 88,
    "secondTag": "재료가 신선해요",
    "secondCount": 30,
    "area": "면목"
  },
  {
    "placeId": "1052174798",
    "name": "오븐마루치킨 길음점",
    "category": "치킨,닭강정",
    "lat": 37.6096436,
    "lng": 127.0272571,
    "score": 2.93,
    "foodCount": 161,
    "secondTag": "친절해요",
    "secondCount": 55,
    "area": "길음"
  },
  {
    "placeId": "30982538",
    "name": "한신포차 라페스타점",
    "category": "포장마차",
    "lat": 37.6629485,
    "lng": 126.7664735,
    "score": 2.93,
    "foodCount": 489,
    "secondTag": "기본 안주가 좋아요",
    "secondCount": 167,
    "area": "일산 라페스타"
  },
  {
    "placeId": "1659973930",
    "name": "담터쭈꾸미",
    "category": "주꾸미요리",
    "lat": 37.6428341,
    "lng": 127.1115918,
    "score": 2.93,
    "foodCount": 919,
    "secondTag": "재료가 신선해요",
    "secondCount": 314,
    "area": "남양주 별내"
  },
  {
    "placeId": "1885173956",
    "name": "족발당",
    "category": "족발,보쌈",
    "lat": 37.5640246,
    "lng": 127.1966554,
    "score": 2.93,
    "foodCount": 2054,
    "secondTag": "가성비가 좋아요",
    "secondCount": 701,
    "area": "하남 미사"
  },
  {
    "placeId": "36504463",
    "name": "지호한방삼계탕 면목역점",
    "category": "백숙,삼계탕",
    "lat": 37.5852738,
    "lng": 127.0885357,
    "score": 2.92,
    "foodCount": 304,
    "secondTag": "친절해요",
    "secondCount": 104,
    "area": "면목"
  },
  {
    "placeId": "1230514955",
    "name": "용천각",
    "category": "중식당",
    "lat": 37.6036233,
    "lng": 127.0788744,
    "score": 2.92,
    "foodCount": 149,
    "secondTag": "혼밥하기 좋아요",
    "secondCount": 51,
    "area": "중화"
  },
  {
    "placeId": "1996001775",
    "name": "맘스터치 가산디지털단지역점",
    "category": "햄버거",
    "lat": 37.4810933,
    "lng": 126.8837045,
    "score": 2.92,
    "foodCount": 772,
    "secondTag": "가성비가 좋아요",
    "secondCount": 264,
    "area": "가산디지털"
  },
  {
    "placeId": "47629839",
    "name": "대성농장생오리 인계점",
    "category": "오리요리",
    "lat": 37.269484,
    "lng": 127.023585,
    "score": 2.92,
    "foodCount": 432,
    "secondTag": "친절해요",
    "secondCount": 148,
    "area": "수원 인계동"
  },
  {
    "placeId": "1824528216",
    "name": "누구나홀딱반한닭 명일점",
    "category": "치킨,닭강정",
    "lat": 37.5505956,
    "lng": 127.1447907,
    "score": 2.9,
    "foodCount": 258,
    "secondTag": "친절해요",
    "secondCount": 89,
    "area": "명일"
  },
  {
    "placeId": "32794391",
    "name": "한남동한방통닭",
    "category": "치킨,닭강정",
    "lat": 37.5327401,
    "lng": 127.0060066,
    "score": 2.9,
    "foodCount": 1766,
    "secondTag": "친절해요",
    "secondCount": 610,
    "area": "한남"
  },
  {
    "placeId": "1536796810",
    "name": "강남면옥",
    "category": "냉면",
    "lat": 37.384286,
    "lng": 127.1311649,
    "score": 2.9,
    "foodCount": 1321,
    "secondTag": "매장이 넓어요",
    "secondCount": 455,
    "area": "분당 서현"
  },
  {
    "placeId": "1065090085",
    "name": "송도갈비 인덕원점",
    "category": "육류,고기요리",
    "lat": 37.390198,
    "lng": 126.9740243,
    "score": 2.9,
    "foodCount": 993,
    "secondTag": "친절해요",
    "secondCount": 343,
    "area": "안양 평촌"
  },
  {
    "placeId": "1038412625",
    "name": "맥도날드 안성공도DT점",
    "category": "햄버거",
    "lat": 37.0091451,
    "lng": 127.1994538,
    "score": 2.9,
    "foodCount": 360,
    "secondTag": "재료가 신선해요",
    "secondCount": 124,
    "area": "안성"
  },
  {
    "placeId": "1241651558",
    "name": "청와옥 양재직영점",
    "category": "순대,순댓국",
    "lat": 37.4678435,
    "lng": 127.0413349,
    "score": 2.89,
    "foodCount": 1574,
    "secondTag": "양이 많아요",
    "secondCount": 545,
    "area": "양재"
  },
  {
    "placeId": "813002032",
    "name": "미트볼라운지 한남본점",
    "category": "스파게티,파스타전문",
    "lat": 37.5367863,
    "lng": 127.0016082,
    "score": 2.89,
    "foodCount": 787,
    "secondTag": "특별한 메뉴가 있어요",
    "secondCount": 272,
    "area": "이태원"
  },
  {
    "placeId": "91420835",
    "name": "강변나주곰탕 강변역 본점",
    "category": "한식",
    "lat": 37.5385119,
    "lng": 127.0941353,
    "score": 2.89,
    "foodCount": 749,
    "secondTag": "친절해요",
    "secondCount": 259,
    "area": "구의"
  },
  {
    "placeId": "1708384953",
    "name": "판동면옥 여의도점",
    "category": "한식",
    "lat": 37.5295569,
    "lng": 126.9227897,
    "score": 2.89,
    "foodCount": 367,
    "secondTag": "매장이 넓어요",
    "secondCount": 127,
    "area": "여의도"
  },
  {
    "placeId": "16535998",
    "name": "청어진동태찜동태탕 연수본점",
    "category": "아귀찜,해물찜",
    "lat": 37.4151064,
    "lng": 126.6795874,
    "score": 2.89,
    "foodCount": 370,
    "secondTag": "재료가 신선해요",
    "secondCount": 128,
    "area": "인천 연수"
  },
  {
    "placeId": "36756857",
    "name": "맘스터치 덕정점",
    "category": "햄버거",
    "lat": 37.8354744,
    "lng": 127.0653506,
    "score": 2.89,
    "foodCount": 309,
    "secondTag": "친절해요",
    "secondCount": 107,
    "area": "양주 덕정"
  },
  {
    "placeId": "32040023",
    "name": "공릉닭한마리",
    "category": "한식",
    "lat": 37.5571105,
    "lng": 126.9410729,
    "score": 2.88,
    "foodCount": 496,
    "secondTag": "재료가 신선해요",
    "secondCount": 172,
    "area": "이대"
  },
  {
    "placeId": "1625458615",
    "name": "족발신선생 연수점",
    "category": "족발,보쌈",
    "lat": 37.4139559,
    "lng": 126.6772706,
    "score": 2.88,
    "foodCount": 299,
    "secondTag": "친절해요",
    "secondCount": 104,
    "area": "인천 연수"
  },
  {
    "placeId": "12012595",
    "name": "한촌설렁탕&갈비 부천본점",
    "category": "곰탕,설렁탕",
    "lat": 37.4835666,
    "lng": 126.7654363,
    "score": 2.88,
    "foodCount": 3089,
    "secondTag": "매장이 넓어요",
    "secondCount": 1071,
    "area": "부천 송내"
  },
  {
    "placeId": "37912785",
    "name": "진미평양냉면",
    "category": "냉면",
    "lat": 37.5161247,
    "lng": 127.0360501,
    "score": 2.87,
    "foodCount": 2873,
    "secondTag": "특별한 메뉴가 있어요",
    "secondCount": 1001,
    "area": "논현"
  },
  {
    "placeId": "1192717326",
    "name": "황평집닭곰탕",
    "category": "곰탕,설렁탕",
    "lat": 37.5640999,
    "lng": 126.9960896,
    "score": 2.87,
    "foodCount": 865,
    "secondTag": "친절해요",
    "secondCount": 301,
    "area": "충무로"
  },
  {
    "placeId": "21884652",
    "name": "곽만근갈비탕 인천청라점",
    "category": "갈비탕",
    "lat": 37.5295536,
    "lng": 126.6550458,
    "score": 2.87,
    "foodCount": 304,
    "secondTag": "친절해요",
    "secondCount": 106,
    "area": "인천 청라"
  },
  {
    "placeId": "11893055",
    "name": "경인면옥",
    "category": "냉면",
    "lat": 37.4725546,
    "lng": 126.6282491,
    "score": 2.87,
    "foodCount": 908,
    "secondTag": "친절해요",
    "secondCount": 316,
    "area": "인천 동인천"
  },
  {
    "placeId": "1555623640",
    "name": "당가원 홍제점",
    "category": "중식당",
    "lat": 37.5917978,
    "lng": 126.9459286,
    "score": 2.86,
    "foodCount": 698,
    "secondTag": "양이 많아요",
    "secondCount": 244,
    "area": "홍제"
  },
  {
    "placeId": "19827998",
    "name": "에베레스트레스토랑 동대문역사문화공원점",
    "category": "인도음식",
    "lat": 37.5669757,
    "lng": 127.0075316,
    "score": 2.86,
    "foodCount": 669,
    "secondTag": "친절해요",
    "secondCount": 234,
    "area": "동대문"
  },
  {
    "placeId": "1749714457",
    "name": "서리재 서울역점",
    "category": "육류,고기요리",
    "lat": 37.5545788,
    "lng": 126.9714006,
    "score": 2.86,
    "foodCount": 400,
    "secondTag": "친절해요",
    "secondCount": 140,
    "area": "서울역"
  },
  {
    "placeId": "1051551408",
    "name": "하이난",
    "category": "중식당",
    "lat": 37.5988443,
    "lng": 127.075941,
    "score": 2.86,
    "foodCount": 209,
    "secondTag": "양이 많아요",
    "secondCount": 73,
    "area": "중화"
  },
  {
    "placeId": "1092198008",
    "name": "거궁 마곡점",
    "category": "한정식",
    "lat": 37.5585517,
    "lng": 126.8337755,
    "score": 2.86,
    "foodCount": 1403,
    "secondTag": "매장이 넓어요",
    "secondCount": 490,
    "area": "발산"
  },
  {
    "placeId": "21421362",
    "name": "정인면옥평양냉면",
    "category": "냉면",
    "lat": 37.4829692,
    "lng": 126.8567015,
    "score": 2.86,
    "foodCount": 713,
    "secondTag": "친절해요",
    "secondCount": 249,
    "area": "광명"
  },
  {
    "placeId": "1049100681",
    "name": "신전떡볶이 송내점",
    "category": "분식",
    "lat": 37.4852386,
    "lng": 126.7536011,
    "score": 2.86,
    "foodCount": 317,
    "secondTag": "친절해요",
    "secondCount": 111,
    "area": "부천 송내"
  },
  {
    "placeId": "12858000",
    "name": "장강",
    "category": "중식당",
    "lat": 37.7558023,
    "lng": 126.7808717,
    "score": 2.86,
    "foodCount": 552,
    "secondTag": "친절해요",
    "secondCount": 193,
    "area": "파주 금촌"
  },
  {
    "placeId": "1874456209",
    "name": "오가생선구이전문점",
    "category": "생선구이",
    "lat": 37.3116,
    "lng": 127.400842,
    "score": 2.86,
    "foodCount": 569,
    "secondTag": "재료가 신선해요",
    "secondCount": 199,
    "area": "이천"
  },
  {
    "placeId": "1284513189",
    "name": "매우매오 강남역본점",
    "category": "한식",
    "lat": 37.5035326,
    "lng": 127.0265655,
    "score": 2.85,
    "foodCount": 1894,
    "secondTag": "인테리어가 멋져요",
    "secondCount": 665,
    "area": "역삼"
  },
  {
    "placeId": "1552847277",
    "name": "보승회관 명동점",
    "category": "국밥",
    "lat": 37.5644663,
    "lng": 126.9848293,
    "score": 2.85,
    "foodCount": 422,
    "secondTag": "혼밥하기 좋아요",
    "secondCount": 148,
    "area": "명동"
  },
  {
    "placeId": "1183785127",
    "name": "고베규카츠 건대점",
    "category": "돈가스",
    "lat": 37.5429844,
    "lng": 127.0711922,
    "score": 2.85,
    "foodCount": 8407,
    "secondTag": "재료가 신선해요",
    "secondCount": 2945,
    "area": "건대"
  },
  {
    "placeId": "20691128",
    "name": "놀부만두",
    "category": "만두",
    "lat": 37.5893787,
    "lng": 127.0614705,
    "score": 2.85,
    "foodCount": 903,
    "secondTag": "친절해요",
    "secondCount": 317,
    "area": "회기"
  },
  {
    "placeId": "1863334908",
    "name": "서오릉풍천민물장어",
    "category": "장어,먹장어요리",
    "lat": 37.6199419,
    "lng": 126.902961,
    "score": 2.85,
    "foodCount": 498,
    "secondTag": "재료가 신선해요",
    "secondCount": 175,
    "area": "연신내"
  },
  {
    "placeId": "1035388367",
    "name": "일호점미역",
    "category": "한정식",
    "lat": 37.34914,
    "lng": 127.0870329,
    "score": 2.85,
    "foodCount": 1630,
    "secondTag": "재료가 신선해요",
    "secondCount": 571,
    "area": "용인 수지"
  },
  {
    "placeId": "36022545",
    "name": "맥도날드 동두천지행DT점",
    "category": "햄버거",
    "lat": 37.8921622,
    "lng": 127.0573547,
    "score": 2.85,
    "foodCount": 1609,
    "secondTag": "친절해요",
    "secondCount": 565,
    "area": "동두천"
  },
  {
    "placeId": "1745686903",
    "name": "강남교자 동대문점",
    "category": "칼국수,만두",
    "lat": 37.5678569,
    "lng": 127.0077846,
    "score": 2.84,
    "foodCount": 660,
    "secondTag": "친절해요",
    "secondCount": 232,
    "area": "종로"
  },
  {
    "placeId": "38500970",
    "name": "허머스키친",
    "category": "아시아음식",
    "lat": 37.5093179,
    "lng": 127.0616404,
    "score": 2.84,
    "foodCount": 2221,
    "secondTag": "재료가 신선해요",
    "secondCount": 781,
    "area": "삼성역"
  },
  {
    "placeId": "37703543",
    "name": "중앙해장",
    "category": "해장국",
    "lat": 37.5082495,
    "lng": 127.0655417,
    "score": 2.84,
    "foodCount": 4148,
    "secondTag": "재료가 신선해요",
    "secondCount": 1462,
    "area": "삼성역"
  },
  {
    "placeId": "11600155",
    "name": "정",
    "category": "중식당",
    "lat": 37.5450558,
    "lng": 126.9670537,
    "score": 2.84,
    "foodCount": 745,
    "secondTag": "특별한 메뉴가 있어요",
    "secondCount": 262,
    "area": "효창공원"
  },
  {
    "placeId": "34320746",
    "name": "기와집 능이백숙삼계탕 본점",
    "category": "백숙,삼계탕",
    "lat": 37.5569007,
    "lng": 127.0764236,
    "score": 2.84,
    "foodCount": 733,
    "secondTag": "양이 많아요",
    "secondCount": 258,
    "area": "군자"
  },
  {
    "placeId": "12054706",
    "name": "할매보쌈 면목본점",
    "category": "족발,보쌈",
    "lat": 37.583264,
    "lng": 127.088574,
    "score": 2.84,
    "foodCount": 142,
    "secondTag": "친절해요",
    "secondCount": 50,
    "area": "면목"
  },
  {
    "placeId": "1598206541",
    "name": "곱분이곱창 신정점",
    "category": "곱창,막창,양",
    "lat": 37.5197049,
    "lng": 126.8536192,
    "score": 2.84,
    "foodCount": 105,
    "secondTag": "친절해요",
    "secondCount": 37,
    "area": "신정"
  },
  {
    "placeId": "34015652",
    "name": "수타원 영통점",
    "category": "중식당",
    "lat": 37.2451648,
    "lng": 127.0657927,
    "score": 2.84,
    "foodCount": 981,
    "secondTag": "양이 많아요",
    "secondCount": 346,
    "area": "수원 영통"
  },
  {
    "placeId": "11726902",
    "name": "물레방아",
    "category": "백숙,삼계탕",
    "lat": 37.2337075,
    "lng": 127.1361248,
    "score": 2.84,
    "foodCount": 1773,
    "secondTag": "매장이 넓어요",
    "secondCount": 625,
    "area": "용인 기흥"
  },
  {
    "placeId": "485702976",
    "name": "뜰안채2한정식",
    "category": "한정식",
    "lat": 37.3928092,
    "lng": 126.9941549,
    "score": 2.84,
    "foodCount": 312,
    "secondTag": "뷰가 좋아요",
    "secondCount": 110,
    "area": "의왕"
  },
  {
    "placeId": "1593216336",
    "name": "금룡",
    "category": "중식당",
    "lat": 37.2899819,
    "lng": 127.637053,
    "score": 2.84,
    "foodCount": 363,
    "secondTag": "재료가 신선해요",
    "secondCount": 128,
    "area": "여주"
  },
  {
    "placeId": "1375789021",
    "name": "피자헛 경기광주본점",
    "category": "피자",
    "lat": 37.4154687,
    "lng": 127.2596664,
    "score": 2.84,
    "foodCount": 216,
    "secondTag": "재료가 신선해요",
    "secondCount": 76,
    "area": "광주(경기)"
  },
  {
    "placeId": "37997250",
    "name": "빠리짬뽕",
    "category": "중식당",
    "lat": 37.5976111,
    "lng": 127.0767077,
    "score": 2.83,
    "foodCount": 167,
    "secondTag": "재료가 신선해요",
    "secondCount": 59,
    "area": "중화"
  },
  {
    "placeId": "1112540091",
    "name": "플롭 불광천",
    "category": "피자",
    "lat": 37.5891015,
    "lng": 126.9140888,
    "score": 2.83,
    "foodCount": 608,
    "secondTag": "인테리어가 멋져요",
    "secondCount": 215,
    "area": "응암"
  },
  {
    "placeId": "2037941444",
    "name": "한티옥 롯데몰 김포공항점",
    "category": "한식",
    "lat": 37.5638002,
    "lng": 126.8036334,
    "score": 2.83,
    "foodCount": 65,
    "secondTag": "재료가 신선해요",
    "secondCount": 23,
    "area": "김포공항"
  },
  {
    "placeId": "36729858",
    "name": "한우리 롯데몰 김포공항점",
    "category": "한정식",
    "lat": 37.5639019,
    "lng": 126.8033713,
    "score": 2.83,
    "foodCount": 578,
    "secondTag": "재료가 신선해요",
    "secondCount": 204,
    "area": "김포공항"
  },
  {
    "placeId": "1278890046",
    "name": "오늘돈카츠",
    "category": "돈가스",
    "lat": 37.4807326,
    "lng": 126.8806252,
    "score": 2.83,
    "foodCount": 843,
    "secondTag": "재료가 신선해요",
    "secondCount": 298,
    "area": "가산디지털"
  },
  {
    "placeId": "70157225",
    "name": "마왕족발 정자본점",
    "category": "족발,보쌈",
    "lat": 37.3702283,
    "lng": 127.1146708,
    "score": 2.83,
    "foodCount": 382,
    "secondTag": "양이 많아요",
    "secondCount": 135,
    "area": "분당 정자"
  },
  {
    "placeId": "21732929",
    "name": "포브라더스 도곡점",
    "category": "베트남음식",
    "lat": 37.484032,
    "lng": 127.0453012,
    "score": 2.82,
    "foodCount": 1722,
    "secondTag": "재료가 신선해요",
    "secondCount": 610,
    "area": "도곡"
  },
  {
    "placeId": "1729464811",
    "name": "을지하옥",
    "category": "요리주점",
    "lat": 37.5653835,
    "lng": 126.991294,
    "score": 2.82,
    "foodCount": 1016,
    "secondTag": "친절해요",
    "secondCount": 360,
    "area": "을지로"
  },
  {
    "placeId": "1604737979",
    "name": "호오",
    "category": "한식",
    "lat": 37.5630703,
    "lng": 126.9954962,
    "score": 2.81,
    "foodCount": 73,
    "secondTag": "인테리어가 멋져요",
    "secondCount": 26,
    "area": "충무로"
  },
  {
    "placeId": "1545471442",
    "name": "알러이",
    "category": "중식당",
    "lat": 37.6260047,
    "lng": 127.078702,
    "score": 2.81,
    "foodCount": 211,
    "secondTag": "친절해요",
    "secondCount": 75,
    "area": "노원"
  },
  {
    "placeId": "21093358",
    "name": "색동저고리 목동점",
    "category": "한정식",
    "lat": 37.5367765,
    "lng": 126.8819663,
    "score": 2.81,
    "foodCount": 309,
    "secondTag": "친절해요",
    "secondCount": 110,
    "area": "목동"
  },
  {
    "placeId": "12889130",
    "name": "열린지혜의맛",
    "category": "스파게티,파스타전문",
    "lat": 37.5307333,
    "lng": 126.85115,
    "score": 2.81,
    "foodCount": 534,
    "secondTag": "친절해요",
    "secondCount": 190,
    "area": "화곡"
  },
  {
    "placeId": "1259834498",
    "name": "이삭토스트 안산한대앞역점",
    "category": "토스트",
    "lat": 37.3083937,
    "lng": 126.8520042,
    "score": 2.81,
    "foodCount": 295,
    "secondTag": "가성비가 좋아요",
    "secondCount": 105,
    "area": "안산 한대앞"
  },
  {
    "placeId": "18077139",
    "name": "만두예찬",
    "category": "만두",
    "lat": 37.8448698,
    "lng": 127.0623355,
    "score": 2.81,
    "foodCount": 318,
    "secondTag": "재료가 신선해요",
    "secondCount": 113,
    "area": "양주 덕정"
  },
  {
    "placeId": "102198467",
    "name": "새벽집 양곱창",
    "category": "곱창,막창,양",
    "lat": 37.5073149,
    "lng": 126.8843639,
    "score": 2.8,
    "foodCount": 471,
    "secondTag": "친절해요",
    "secondCount": 168,
    "area": "신도림"
  },
  {
    "placeId": "1862909287",
    "name": "안녕부산",
    "category": "한식",
    "lat": 37.4792368,
    "lng": 126.953745,
    "score": 2.8,
    "foodCount": 2412,
    "secondTag": "매장이 넓어요",
    "secondCount": 862,
    "area": "서울대입구"
  },
  {
    "placeId": "33213692",
    "name": "제주고씨네김치찌개",
    "category": "한식",
    "lat": 37.4266601,
    "lng": 126.9911523,
    "score": 2.8,
    "foodCount": 182,
    "secondTag": "양이 많아요",
    "secondCount": 65,
    "area": "과천"
  },
  {
    "placeId": "18077401",
    "name": "밀밭칼국수",
    "category": "칼국수,만두",
    "lat": 37.8419134,
    "lng": 127.0645367,
    "score": 2.8,
    "foodCount": 1136,
    "secondTag": "양이 많아요",
    "secondCount": 406,
    "area": "양주 덕정"
  },
  {
    "placeId": "11679381",
    "name": "우래옥",
    "category": "냉면",
    "lat": 37.5682697,
    "lng": 126.9987029,
    "score": 2.79,
    "foodCount": 5306,
    "secondTag": "매장이 넓어요",
    "secondCount": 1900,
    "area": "종로"
  },